amenity,name,lat,lon
fuel,Киришиавтосервис,60.0265447,30.4316105
fuel,Линос,60.0318975,30.4317729
restaurant,Калипсо,60.1231123,29.9416884
post_office,Санкт-Петербург 195276,60.0464432,30.3877733
bank,Сбербанк,60.0122344,30.4118853
fuel,"Neste A24 № 416 ""Бабушкина""",59.8656403,30.453894
library,Фундаментальная библиотека СПбПУ,60.0077121,30.3732497
clock,,59.9889111,30.2962684
fuel,Фаэтон,60.0350033,30.3658884
post_box,,59.9453356,30.4101807
cinema,Jam Hall,59.9673052,30.3085901
atm,,59.9749369,30.3872517
fuel,Аэро,59.8236932,30.319641
restaurant,Русская рыбалка,59.9693246,30.2332697
bicycle_rental,JetSet,59.9710726,30.254421
restaurant,Харчевня XIV век,59.9587217,30.3066182
cinema,Мираж Синема,59.9595399,30.3023557
restaurant,Устричный бар,59.9618364,30.3104206
restaurant,Мама Рома,59.9627191,30.3068701
fuel,LPG,59.9932193,30.3909554
post_box,,60.0123975,30.4321958
cafe,Слойка,59.9592264,30.3119998
bank,Райффайзенбанк,59.9595625,30.3178378
atm,Балтийский банк,59.9564346,30.321172
restaurant,Две палочки,59.9325275,30.3475666
fast_food,Макдоналдс,59.9326937,30.34627
cafe,Приют гурмана,59.9634627,30.306516
cafe,Снежинка,59.9631631,30.301681
restaurant,La Izvor,59.9593485,30.3056868
bank,СДМ-БАНК,59.9608615,30.3073525
restaurant,La Fabrik,59.9666869,30.2860197
fuel,Киришиавтосервис 13,59.6887866,29.920541
fuel,ПТК,59.5728378,30.1718214
bank,Сбербанк,60.0044413,30.6096776
restaurant,ТаймАут,60.104587,29.9772705
atm,,60.0088876,30.3730501
atm,,60.0090135,30.3708507
fountain,Самсон,59.8852066,29.9091469
bar,SПБ,59.9153938,30.313205
post_office,Санкт-Петербург 197101,59.96024,30.317538
bank,Сбербанк,59.9640885,30.3129739
bench,,59.6960199,30.4791452
bench,,59.6959902,30.4795213
fuel,Фаэтон,59.6820773,30.2437469
fuel,Волга-нефтепродукт,59.6521505,30.2151284
cafe,Больше Кофе!,59.9545201,30.3204196
atm,Петербургский городской банк,59.9532626,30.3222986
nightclub,Fireball,59.8542716,30.3870487
pharmacy,Радуга,59.9155203,30.4581999
pharmacy,У театра,59.9248608,30.2880519
cafe,Маска,59.9247749,30.2891318
atm,,59.9246274,30.2870131
kindergarten,Детский сад №60,59.9246956,30.2887825
pharmacy,Витал,59.9245978,30.288351
fuel,ПТК,60.2033991,29.6904597
fuel,ПТК,60.1932852,29.6886232
fuel,"АЗС ""Анри-центр""",60.2043452,29.6952999
fuel,Фаэтон,59.9129149,30.3758399
bank,Авангард,59.8524649,30.3103753
fuel,Neste № 515,60.0200535,30.6018635
fuel,Neste,59.9351914,30.2502112
fuel,Линос,59.9386227,30.231803
parking,,59.932812,30.4360991
fountain,,59.8840842,29.907076
fountain,,59.8837182,29.9098913
fountain,Нептун,59.8824907,29.9077283
fountain,Дубовый,59.8835639,29.908294
cafe,Irish,59.9554791,30.2960086
bank,Сбербанк,59.955597,30.2951246
bank,"Citibank. Отделение ""На Большом пр.""",59.9554013,30.2948512
cafe,Теремок,59.9620039,30.3056479
library,Библиотека имени В.И. Ленина,59.9575723,30.3026106
atm,РайффайзенБанк,59.9672811,30.3085541
atm,БинБанк,59.9660911,30.3119735
fuel,,59.8647619,30.4919618
driving_school,Армида,59.8944727,30.4186907
pub,Зелёный король,59.9631017,30.3024991
cafe,ANY.Тесто,59.9610107,30.3070015
pharmacy,Родник здоровья,59.965611,30.2982222
cafe,,59.9652139,30.2975931
cafe,Шоколадница,59.9604419,30.3031026
cafe,Кофе Хауз,59.9585229,30.2999818
cafe,Туутари-парк,59.6934373,30.1792749
cafe,Паутина,59.9608834,30.3147854
cafe,Coffee Noa,59.9611733,30.3158104
restaurant,Остров,59.9614075,30.3153883
cafe,Марка,59.9675752,30.309297
fast_food,Макдоналдс,59.966808,30.3110293
fast_food,KFC,59.966663,30.3114102
restaurant,Пицца Хат,59.9665737,30.3112289
cafe,ParkKing,59.9560795,30.315539
restaurant,Две палочки,59.9633547,30.307789
pub,,59.9601434,30.3092592
restaurant,Две палочки,59.9480555,30.2326179
parking,,59.9705883,30.3025373
atm,Сбербанк,59.9577855,30.3088402
pharmacy,Первая помощь,59.9577309,30.3084174
restaurant,Тбилисо,59.9577014,30.308235
pharmacy,Петербургские аптеки,59.9640473,30.2958136
cafe,Вега,59.9607314,30.2981903
bank,ОТП Банк,59.9594554,30.3014564
pub,Molly Sullivan,59.9594377,30.303103
bench,,59.6883453,30.4572638
bench,,59.6888384,30.4574395
post_box,,59.8540501,30.3058061
restaurant,Дамаск,59.9570889,30.3130539
post_office,Отделение связи №188820,60.2559096,29.6016252
cafe,,60.1207184,29.9424779
fuel,Фаэтон,60.0482083,30.464995
fuel,,60.0626918,30.4934852
post_box,,59.9335426,30.3229185
post_box,,59.9349222,30.3285188
parking,,60.0058472,30.3544405
car_wash,Мойка-Люкс,60.0319406,30.6270656
bank,Сбербанк,60.0195472,30.6475427
bureau_de_change,Констанс-банк,60.047271,30.4627937
cinema,Дом кино,59.9362374,30.3417637
bench,,59.8661496,30.3199974
fast_food,KFC,59.8663626,30.3198361
car_wash,,60.0484479,30.4652999
marketplace,,59.9421044,31.041256
post_office,Шлиссельбург 187320,59.9434926,31.0357254
marketplace,,59.942239,31.0409592
toilets,,59.9528379,30.3066815
post_office,Отделение связи №187342,59.8800069,30.9886879
doctors,Американская Медицинская Клиника,59.9304475,30.305138
restaurant,Наш Питер,59.9523046,30.2972882
cafe,Dinner Hall,59.9136572,30.3754386
cafe,Амилен,59.9140452,30.3769343
car_wash,,60.0784302,30.2669246
fuel,АГЗС Северное,60.0929758,30.2561382
parking,,59.9284983,30.4911013
cinema,Мираж Синема,60.0389089,30.3235509
toilets,(closed),59.7612683,30.2655456
cafe,Уголёк,59.8761352,30.320967
pub,The Templet Bar,59.938595,30.3631991
fuel,,59.974071,30.4397157
pub,Bier König,59.9273756,30.3239418
toilets,,60.0362518,30.3189349
toilets,,59.9965577,30.5437154
drinking_water,,60.2695617,29.4274758
drinking_water,,60.2204015,29.5068112
cafe,Васаби,59.9397604,30.4755116
restaurant,Пури,59.9438655,30.4792091
bank,Авангард,59.9219213,30.4592033
bank,Сбербанк,59.9223035,30.4578285
bank,Сбербанк,59.9400724,30.4755822
pharmacy,Первая помощь,59.9388014,30.4775021
nightclub,Домино,59.9382466,30.4905096
library,Детская библиотека,59.9424853,30.4785081
pharmacy,Радуга,59.9455088,30.4857888
bank,Сбербанк,59.9477852,30.4741153
cafe,,59.8963785,30.4925689
car_wash,Автомойка,59.8962563,30.4925451
fountain,,59.8091202,30.5742501
fountain,,59.8086352,30.5755648
fountain,,59.808155,30.5738315
cafe,Барселона,59.9669899,30.4754165
pharmacy,Невис,59.9372367,31.0272854
cafe,Шахеризада,59.9382196,30.4747441
courthouse,Мировые судьи,59.9386972,30.4748425
pharmacy,,60.1645158,29.8582817
fuel,ПТК,59.8300898,30.5317272
cafe,,59.8890128,30.5143178
atm,,60.0750454,30.2733292
cinema,Каро фильм,59.9083944,30.4835288
cinema,Формула Кино,59.9118261,30.4464556
atm,Сбербанк,59.9112941,30.4451811
post_office,Всеволожск 188641,60.0041509,30.6087915
post_office,,59.9939918,30.6545598
cinema,Кинополис,60.0198196,30.6465715
post_office,,60.0190103,30.6487159
bar,Fidel,59.9329187,30.3274795
pharmacy,Государственная аптека,59.917244,30.471654
restaurant,Евразия,59.9189957,30.4724255
biergarten,Гермес,59.9084121,30.4837624
police,Отделение полиции №74,59.8578904,30.1792009
bank,Сбербанк,59.8595573,30.1851948
restaurant,Мики,59.8755617,30.4592322
theatre,Мастерская,59.8772638,30.4574083
pub,Камелот,59.9119574,30.468618
restaurant,Две палочки,59.9169252,30.4720955
bank,Альфа-Банк,60.0065057,30.2567891
bank,Альфа-Банк,59.9590493,30.3539856
bank,Альфа Private,59.9336629,30.3237277
bank,Альфа-Банк,59.9254899,30.3570735
bank,Альфа-Банк,59.9304908,30.3642146
bank,Альфа-Банк,59.9282464,30.4114121
toilets,,60.1359995,30.5267683
cafe,Горка,59.8975532,30.6889863
parking,,59.748673,30.6068332
cafe,,59.919543,30.7371953
cafe,Столовая ПК «Темп»,59.9192831,30.3487523
cafe,,59.9180354,30.3469419
cafe,,59.9183598,30.3464542
cafe,,59.9167769,30.3496167
cafe,Смайли,59.9193924,30.3537328
fast_food,,59.9179568,30.3487906
cafe,Вкусняшка,60.0445969,30.4636492
parking,,59.7525974,30.5790933
pharmacy,Биотехнотроник,59.9592004,30.3532156
pharmacy,,59.9580625,30.3555556
cinema,Синема Парк,60.0587742,30.3362716
fast_food,KFC,60.0588683,30.3373775
toilets,,60.0196177,30.349618
bicycle_rental,Velik и rolic,60.0144817,30.3519577
pharmacy,,59.7189639,30.4186712
post_box,,59.7179192,30.4177344
post_box,,59.9589048,30.4115078
parking,,59.7284683,30.2334864
bank,Сбербанк,59.8068048,30.5713301
fast_food,Макдоналдс,59.9001486,30.2721628
fast_food,Фрикадельки,59.8996957,30.2732953
bank,Сбербанк,59.9662624,30.3511345
bank,Санкт-Петербург,59.9586314,30.4074665
police,39 ОМ,59.8117891,30.5778211
fuel,Фаэтон (Заброшена/Не работает),59.7882747,30.6195346
bar,Белград,59.9326778,30.3271449
bar,Бермуды,59.9302095,30.3249991
restaurant,Старгород,59.9320699,30.3211974
cinema,Родина,59.9362738,30.3417727
pub,Tara Brooch,59.9305577,30.3726008
pub,Foggy Dew,59.9398585,30.360842
fast_food,Волна FM,59.9328677,30.3249597
restaurant,Macaroni,59.9277588,30.3429133
fuel,Киришиавтосервис 9,60.1769422,30.1502586
bank,Балтийский Банк,59.8439106,30.2497211
atm,,59.8367233,30.2637399
pharmacy,Первая помощь,59.8405961,30.2382299
pharmacy,Первая помощь,59.8435273,30.2290088
pharmacy,Петербургские аптеки,59.8424484,30.2427171
doctors,,60.319582,30.4355956
post_box,,60.3187058,30.4383168
cafe,,60.3179147,30.4406073
parking,,60.171258,29.8139013
restaurant,Русская рыбалка,60.1706629,29.8132924
bar,The Bridge,59.9382569,30.3061909
restaurant,Китайский двор,59.9315611,30.2915751
restaurant,Тайвань,59.9180212,30.2968552
fast_food,Макдоналдс,59.8581984,30.2290237
fast_food,Макдоналдс,59.8517625,30.3507488
fast_food,Макдоналдс,59.916217,30.3102715
fast_food,Макдоналдс,59.919425,30.3393805
fast_food,Макдоналдс,59.93542,30.3163601
fast_food,Макдоналдс,59.9433513,30.2786963
fast_food,Макдоналдс,59.9945009,30.147885
fast_food,Макдоналдс,60.0081631,30.2971914
fast_food,Макдоналдс,60.011085,30.3967954
fast_food,Subway,59.8938709,30.5147285
fast_food,Subway,59.9245194,30.3210475
fast_food,Сабвэй,59.9362412,30.320991
pharmacy,,60.0523906,30.3282951
pharmacy,,60.053696,30.3344829
pharmacy,,60.051855,30.3329471
pharmacy,,60.0562295,30.3240379
waste_disposal,,60.0811563,30.2614275
toilets,,59.8865952,29.9019378
restaurant,Евразия,59.935124,30.3235267
waste_disposal,,60.082195,30.2561362
cafe,,60.2581738,29.6003252
pharmacy,,60.2580831,29.5982676
telephone,,59.9569759,30.319477
waste_disposal,,59.9535964,30.2991435
waste_disposal,,59.95336,30.3020995
pub,Ливерпуль,59.9360688,30.3547699
cafe,Coffeeshop,59.8488283,30.3221197
restaurant,Pizza Hut,59.8453019,30.3229537
atm,,59.8453291,30.322759
bank,Советский,59.8451384,30.322693
bank,Райффайзен Банк,59.8490855,30.3222502
parking,,59.9270068,30.3827303
parking,,60.0109898,30.3625196
pub,Puberty,59.9734616,30.3339331
cafe,Пирога,59.97277,30.340207
pub,Shamrock Irish Pub,59.9266486,30.2958789
restaurant,Строганов Стейк Хаус,59.9333647,30.3000931
restaurant,Русская Рюмочная №1,59.9325351,30.2973976
post_box,,59.95625,30.3040996
post_office,Санкт-Петербург 197198,59.9563371,30.3042559
cafe,Кофе Хаус,59.9550583,30.357573
bank,,59.9446188,30.2830957
bank,Сбербанк,59.9429619,30.2773872
bank,Ситибанк,59.9435267,30.279363
cafe,Модерн,59.8480275,30.3224964
bank,Хоум Кредит,59.9538881,30.3568718
police,МРЭО ГИБДД,59.7307568,30.5882494
drinking_water,,60.1981237,30.3152761
restaurant,,59.9350026,30.3714069
parking,,59.916719,30.3753675
pharmacy,Фармадом,59.878582,30.9864248
pharmacy,,59.8861329,30.991837
pharmacy,Лека-Фарм,59.9582204,30.3116498
bank,Сбербанк,59.9579395,30.3328318
bench,,59.9991232,30.0341269
pub,Перекрёсток,59.8751414,30.399088
restaurant,Ани,59.8730112,30.4027146
pub,,59.8730433,30.4028131
bank,,59.8761207,30.3988292
atm,,59.8760944,30.3988678
restaurant,Джорджия,59.9142629,30.3531238
restaurant,,59.9140953,30.3540377
parking,,59.9357495,30.3190968
restaurant,Grand Империал,59.9037738,30.3197933
pharmacy,Фармакор,59.8756642,30.4459922
pharmacy,Здоровые люди,59.8763468,30.4436667
bar,,59.8677478,30.4619525
restaurant,Оба два,59.938823,30.362681
hospital,Роддом №2,59.9453897,30.3587408
waste_disposal,,59.9844398,30.5181711
restaurant,Munhell,59.909136,30.4791502
pharmacy,Первая помощь,59.9372476,30.4893328
collection office,ПЭС центр приема платежей №26,59.9224173,30.4790508
restaurant,Олень,59.8722864,30.3922508
pharmacy,Горные вершины,59.8733185,30.4021663
pharmacy,,59.8755611,30.3987839
pub,,59.8669142,30.4124569
cafe,Ани,59.8654894,30.4130781
fuel,"Neste № 308 ""Софийская""",59.8789077,30.3977287
fuel,ПТК,59.7297033,30.583417
restaurant,Аззурро,59.9584715,30.299367
cafe,Столовая на Почтамтской,59.9326603,30.3042196
cafe,Папарацци,59.9322927,30.3029926
fuel,Фаэтон,59.7525055,30.6082289
cafe,,59.9863072,30.3593673
fast_food,Теремок,59.9003921,30.272005
cafe,,59.9054142,30.4201406
drinking_water,,60.080866,30.308907
cinema,Мираж Синема,59.9902051,30.256694
cafe,,59.9893838,30.2580085
food_court,,59.9900749,30.2567039
bar,,59.9930926,30.2527214
fast_food,,59.9997413,30.2433485
pub,,60.0121884,30.243177
cinema,КАРО,60.007529,30.2601309
police,,60.0123269,30.2459116
fast_food,,60.0121659,30.2448129
cinema,Кронверк,60.0123736,30.3985699
fast_food,,60.0116106,30.2442039
fast_food,Теремок,60.0081825,30.2477166
cafe,,60.0081427,30.2471482
place_of_worship,,59.997683,30.2641617
pharmacy,Эдифарм,59.9627102,30.3097846
kindergarten,Детский сад №53,59.9636053,30.3104538
bank,Инкасбанк,59.9639572,30.3101855
fuel,Фаэтон,59.9006972,30.9978386
cafe,,60.0053331,30.2613188
waste_disposal,,59.9557945,30.3085556
waste_disposal,,59.9574695,30.3065935
cafe,Метрополь,59.9567821,30.3119043
fast_food,,60.0603079,30.3598703
car_wash,ПТК,59.8516368,30.3393564
pharmacy,Первая Помощь,59.9596871,30.4391927
pharmacy,Горные вершины,59.8812536,30.4691087
bank,Сбербанк,59.8745032,29.8569312
waste_disposal,,59.8739706,30.4475293
bank,Санкт-Петербург,59.8504805,30.3134708
atm,,59.8801144,30.4613925
pharmacy,Горные вершины,59.8800798,30.4600841
atm,,59.8801019,30.4574553
bank,Сбербанк,59.8799995,30.4572535
fast_food,,59.8803932,30.4624159
parking,,59.9756967,30.3005821
bank,Санкт-Петербург,59.9605114,30.2929866
bank,Ханты-Мансийский банк,59.9604676,30.2930639
drinking_water,,60.0795739,30.2597546
hospital,Детская больница святой Марии-Магдалины,59.946895,30.2814163
bar,SПБ,59.925439,30.315849
place_of_worship,Храм во имя Святых апостолов Петра и Павла,59.9717903,31.0241759
restaurant,Мацони,60.0293388,30.3988145
pharmacy,Фарммедсервис,59.8598227,30.3062394
post_box,,59.884666,30.3190079
clock,,59.885626,30.3191727
fast_food,Тили-тесто,59.8491586,30.3225444
toilets,,59.8495926,30.3233046
restaurant,Две палочки,59.8576874,30.3929313
fuel,"Statoil № 303 ""Химиков""",59.9672862,30.4705699
cafe,Теремок,59.8486298,30.3210532
restaurant,Две палочки,59.847609,30.3209845
bank,ВТБ24,59.8457538,30.3224385
toilets,,59.8666936,30.3216413
cafe,Вояж,59.8490882,30.3233746
pub,Dr. Inki,59.8502936,30.325008
waste_disposal,,59.8863248,30.3179009
waste_disposal,,59.942242,30.2974921
pharmacy,,59.8491396,30.3243304
restaurant,Сказки Шахерезады,59.851853,30.3200277
police,,59.957943,30.3218238
pharmacy,Первая помощь,59.9567933,30.3262363
cafe,Рыжий кот,59.9575794,30.3281716
cafe,,59.8468153,30.3308092
bar,PulkoffClub,59.8474233,30.3305132
bank,Сбербанк,59.850754,30.3289595
waste_disposal,,59.9293476,30.2430467
doctors,Подстанция скорой помощи №25,59.9752667,30.4068105
cinema,КАРО Фильм - Варшавский экспресс,59.9069413,30.3077311
waste_disposal,,59.9474876,30.3817043
waste_disposal,,59.9208869,30.3271629
toilets,,59.9210265,30.3277122
fast_food,Пицца Хат,59.933343,30.3149826
pharmacy,Фармакор,59.9124835,30.4614602
pharmacy,Государственная аптека,59.9096935,30.4788892
restaurant,Васаби,59.9093551,30.478945
pharmacy,Удачная аптека,59.9103703,30.4782648
bank,Ак Барс Банк,60.0112845,30.3944721
bank,Ситибанк,60.0114526,30.3946785
pub,Beer House,60.0113861,30.3945728
bank,Кредит Европа,60.0111075,30.3944056
bank,Балтийский,60.0106322,30.3939946
bench,,60.1517239,30.5342181
bench,,60.1498259,30.538063
pharmacy,207,59.8837152,30.4814166
cinema,Пик,59.9263495,30.3212206
cafe,Лев,59.884084,30.4841741
telephone,,59.883657,30.4810347
bank,Сбербанк,59.9202427,30.4920052
pharmacy,,59.9603806,30.3449362
fast_food,Колобок,59.9466038,30.3597353
atm,,59.9467313,30.3597301
bank,Петровский,59.8496658,30.3294232
pub,Marco Polo,59.8531955,30.3302258
cinema,Синема Парк,59.8669547,30.3514794
bar,Мадрид,59.5686811,30.0696424
cafe,Пирожковая,59.5746487,30.0742313
post_office,Гатчина-1,59.5713497,30.0779648
pub,Mollie's Pub,59.9276605,30.3433773
restaurant,Счастье,59.9291168,30.3437517
clock,,59.8536605,30.3207982
clock,,59.8718765,30.3207851
waste_disposal,,59.8361746,30.260985
waste_disposal,,59.9421887,30.4736788
restaurant,Евразия,59.9475457,30.473551
cinema,Mori Cinema,59.9464337,30.4751594
pharmacy,Радуга,59.9465681,30.4749984
restaurant,Две палочки,59.9468611,30.4743696
waste_disposal,,59.8353491,30.2640259
waste_disposal,,59.8367143,30.2629583
waste_disposal,,59.8390266,30.2579482
parking,,59.9434552,30.4748896
parking,,59.945642,30.474297
waste_disposal,,59.9430429,30.4747029
waste_disposal,,59.9414489,30.4708751
waste_disposal,,60.0428699,30.3363063
waste_disposal,,60.0432118,30.340385
waste_disposal,,60.044339,30.3385808
waste_disposal,,60.0410432,30.3451718
waste_disposal,,59.9456091,30.4718829
parking,,59.8897257,30.2785837
fuel,ПТК,59.890684,30.2799884
doctors,Женская консультация № 16,59.9375802,30.274432
pharmacy,,59.8360448,30.4075562
cinema,Формула кино,59.8306102,30.3774296
restaurant,Ширван,59.8347284,30.4183779
cafe,,59.8338841,30.4142084
pharmacy,Озерки,59.8295681,30.385687
pharmacy,Петербургские аптеки,60.0390175,30.4045003
theatre,Аквариум (детский),60.0364981,30.4127088
post_box,,60.0332148,30.3972439
atm,,59.9935273,30.3532866
library,Фундаментальная библиотека СПбГПУ. Отдел художественной литературы,60.0087766,30.3923279
waste_disposal,,59.8795602,30.4636187
waste_disposal,,59.8799532,30.4652816
atm,,60.008831,30.3709848
atm,,59.9319343,30.4403292
telephone,,59.9315636,30.4425049
telephone,,59.9314203,30.4422573
bank,ТрансКредитБанк,59.9316507,30.4414297
telephone,,59.9319166,30.4406004
telephone,,59.9319461,30.4406417
atm,,59.9320936,30.4408741
atm,,59.9321261,30.4407974
atm,,59.9320938,30.4406594
atm,,59.9319254,30.4404589
bank,Балтийский,59.9318043,30.441583
fuel,ПТК,59.815021,30.3220263
pharmacy,Первая помощь,59.9198296,30.4654371
library,2-я детская библиотека,59.9533841,30.306011
waste_disposal,,59.9597026,30.3075392
waste_disposal,,59.9584027,30.3091513
atm,,59.9596206,30.3123179
pharmacy,Фармакор,59.8145379,30.2945449
theatre,Государственная академическая капелла Санкт-Петербурга,59.9399632,30.3207909
waste_disposal,,59.9581254,30.312203
atm,,60.0090083,30.3708963
fountain,,60.0088691,30.3723827
restaurant,Rыба,59.9778202,30.3185431
pub,НаBeeRежная,59.9782888,30.3146973
bank,УралСиб,59.8734526,30.4385008
parking,,59.7697837,30.7924105
parking,,59.7737816,30.7952581
car_wash,,59.8732496,30.3525082
restaurant,Токио-City,59.9334739,30.311211
cafe,Арт-Буфет,59.933104,30.3110802
parking,,59.8646562,30.4726304
pharmacy,Первая помощь,59.8662939,30.466655
bank,Сбербанк,60.025146,30.6318538
waste_disposal,,60.0062198,30.352146
parking,,59.9833459,30.655254
doctors,Женская консультация,59.9686319,30.3084409
pub,James Cook,59.9689297,30.3088502
bank,Глобэкс,59.9682697,30.3094544
cafe,О'шале,59.8544518,30.3064759
waste_disposal,,59.8638859,30.3149421
waste_disposal,,59.8639724,30.3025229
waste_disposal,,59.8625821,30.3018665
waste_disposal,,59.8616213,30.3032627
waste_disposal,,59.8626476,30.3121145
pharmacy,Эдифарм №2,59.862609,30.314548
pharmacy,ЛекОптТорг,59.8646017,30.3146429
pharmacy,Первая Помощь,59.8646047,30.320121
cafe,Pro-Sushi,59.8514701,30.3141407
university,ИНЖЭКОН,59.8912543,30.3180778
restaurant,Bona Capona,59.8581807,30.3909298
restaurant,Yumm,59.8549929,30.3751288
pharmacy,Первая Помощь,59.8557071,30.3793969
waste_disposal,,60.0841667,30.2648881
waste_disposal,,60.0820449,30.2764364
drinking_water,,60.084364,30.2665184
drinking_water,,60.0813169,30.280995
waste_disposal,,60.0791689,30.2831988
parking,,59.7773773,30.7930161
parking,,59.7774894,30.7935031
pharmacy,Фармакор,60.0232707,30.2871392
nightclub,КоSмос,60.0101568,29.7190721
pharmacy,Норман,60.0094616,29.7222077
restaurant,Зеленый Чай,59.9518633,30.2165906
restaurant,Амроц,59.9492986,30.4616058
cafe,Ажур,59.8826794,30.4753903
restaurant,Евразия,59.8684728,30.3130111
bank,Газпромбанк,59.8555305,30.3725092
clock,,59.8754852,30.3136522
fast_food,Макдоналдс,59.8637892,30.4037717
restaurant,Такао,59.8633951,30.405868
pharmacy,Первая Помощь,59.8491209,30.387962
pub,Толстый фраер,59.8499439,30.391005
bank,Русславбанк,59.9727701,30.3057096
atm,,59.9265946,30.3207377
atm,,59.9252838,30.3219138
bank,Райффайзенбанк,59.9253537,30.3218084
bar,Alex P.,59.9213936,30.3387242
pub,Диккенс,59.921551,30.3191796
clock,,59.8496251,30.3221468
bank,Home Credit,59.8498404,30.3209558
fast_food,Оллис,59.9719861,30.3474498
bank,Альфа-Банк,59.8513774,30.3205789
bank,Росбанк,59.8518479,30.3196525
bank,Сбербанк,59.8529436,30.3204735
bank,ВТБ,59.8530564,30.3253553
pharmacy,Петербургские аптеки,59.8537665,30.3250077
dentist,Профи Клиник,59.8536911,30.3267898
fast_food,Пельменная,59.8547874,30.3249607
cafe,Кофе Хаус,59.8558488,30.3217961
bank,Возрождение,59.8545545,30.3207201
dentist,Пандент,59.8507438,30.3266178
pharmacy,Первая помощь,59.8518665,30.3305351
pharmacy,Эдифарм,59.8526522,30.3305406
waste_disposal,,59.7452189,30.5931123
cafe,Уютное,59.745327,30.5919966
police,Участковый пункт полиции,59.7495378,30.5885311
police,ГИБДД,59.7424835,30.6149884
hospital,Колпинский психоневрологический диспансер,59.7493432,30.5952903
hospital,Колпинский противотуберкулезный диспансер,59.74929,30.5959599
parking,,59.900345,30.4900234
cafe,,59.7493564,30.5906595
restaurant,Ижора,59.7490916,30.6046295
pharmacy,,59.7422793,30.5819497
townhall,Администрация Колпинского района,59.748949,30.5976559
atm,ВТБ24,59.7473325,30.5812784
atm,Сбербанк,59.7356979,30.6144268
bank,CitiBank,59.9281909,30.4119588
bank,Сбербанк,59.7426301,30.5821012
atm,,59.8427333,30.324934
bank,Промсвязьбанк,59.8436486,30.3249323
post_box,,59.7497879,30.5643975
telephone,,59.7497735,30.5646448
cafe,,59.7509831,30.5795549
waste_disposal,,59.7452388,30.5910106
post_box,,59.7488657,30.608391
telephone,,59.7488909,30.6081563
cafe,,59.7408851,30.5923908
library,,59.7443644,30.5828943
fuel,Шелл,59.7727301,30.1253959
fuel,ПТК,59.8516738,30.3392365
waste_disposal,,59.9345381,30.2706263
restaurant,Лилак,59.8398375,30.3287179
bank,Сбербанк,59.8382679,30.3321802
restaurant,Евразия,59.8371801,30.3336094
police,Пост ДПС,59.7756359,30.6562508
car_wash,Автомойка,59.8303092,30.3436394
bank,Сбербанк,59.9443054,31.0381496
atm,ПриватБанк,59.832603,30.415433
bank,Сбербанк,59.833771,30.414188
cafe,Кофе Хауз,59.9364034,30.3264115
parking,,60.2717674,29.6547183
restaurant,il Konti,59.9329768,30.273113
police,База вневедомственной охраны,59.9337121,30.2721759
cafe,Пироговый дворик,60.034807,30.4173627
pharmacy,O3,59.9720405,30.3404913
bank,ВЕФК,59.9726244,30.340262
bank,Собинбанк,59.9744884,30.3390984
fast_food,Блеф,59.9578701,30.3532744
bank,Балтинвестбанк,59.9575366,30.3550978
cafe,Дубай,59.9578424,30.3552302
bank,Советский,59.9577619,30.3557023
car_wash,,59.8304692,30.3475943
car_wash,,59.8306121,30.3489127
bank,БТА Банк,59.97146,30.340291
police,Отдел полиции №20,59.97099,30.3448907
pharmacy,Здоровые Люди,59.9710661,30.3464761
university,"АНОО ВПО ""Межрегиональный институт Экономики и Права при МПА ЕврАзЭС""",59.9715314,30.3465221
bank,Сбербанк,59.9715904,30.3470393
cafe,Север-Метрополь,59.930377,30.3668044
restaurant,Япоша,59.9238568,30.3837748
restaurant,Евразия,59.9269374,30.375446
bar,Никаких Орхидей,59.9253572,30.3543692
cinema,Художественный,59.9317554,30.3536464
cinema,Кристалл-Палас,59.9334066,30.3463065
restaurant,Суши Те Вёсла,59.8801794,30.4577744
pharmacy,Радуга,59.8799402,30.4567898
townhall,ЗАГС Невского района,59.8797832,30.4550628
fast_food,Макдоналдс,59.8313854,30.3478794
atm,ВТБ24,59.7353628,30.5829287
bench,,59.7438616,30.5955101
bench,,59.7439157,30.5950487
bench,,59.7437481,30.5949951
bench,,59.743721,30.5954564
bench,,59.7405909,30.5934823
clock,,59.8292742,30.3460457
bar,SПБ,59.9349533,30.3356869
restaurant,Нихао,59.9241374,30.4150499
waste_disposal,,60.0528591,30.3505131
waste_disposal,,60.0519076,30.3550907
waste_disposal,,60.0505641,30.3537313
waste_disposal,,60.0056507,30.2595634
post_office,Отделение связи №188306,59.5748753,30.1355018
parking,,60.087105,29.9612529
cafe,Муравейник,60.104502,29.9738778
pharmacy,,60.0894545,29.9564229
parking,,59.9019066,29.8174029
cinema,Аврора,59.8788488,29.9210598
toilets,,59.8804672,29.9103276
parking,,60.0112764,30.6655157
bank,Сбербанк,60.0962687,29.9722797
atm,,59.9556693,30.3567042
bank,Балтийский банк,59.9710764,30.387322
pharmacy,Родник здоровья,59.9792375,30.3934776
fuel,Норма,59.9089621,31.0463656
cafe,Кофе Хауз,59.9323675,30.3475322
clock,,59.8977669,30.3185569
fast_food,Столовая,59.8508285,30.30817
atm,,59.8783667,29.9018532
restaurant,Куранты,59.8823216,29.8900809
pharmacy,Здоровые люди,59.8820467,29.8928003
restaurant,Аль-Шарк,59.8819869,29.893124
cafe,Петергофское,59.8818583,29.8940542
doctors,Медсанчасть №67,59.8817524,29.8944871
bar,Парашют,59.9228327,30.3187729
restaurant,Рим,59.9260776,30.313533
police,,59.8849448,29.9051701
toilets,,59.878133,29.8757441
fuel,,59.8693354,29.9714142
car_wash,,59.8692496,29.9715955
car_wash,,59.8705744,29.9722215
fuel,,59.8705175,29.9723815
library,Центральная городская детская библиотека имени А. С. Пушкина,59.9334161,30.3110484
fuel,,59.7449039,29.621323
pharmacy,Первая помощь,59.9293411,30.414803
pharmacy,,59.9269835,30.4142304
pharmacy,Озерки,59.9273161,30.4138723
waste_disposal,,59.9547988,30.2984587
waste_disposal,,59.9567319,30.3033787
parking,,59.9338745,30.4400316
fast_food,Carl's Junior,59.8637767,30.4035104
pharmacy,Первая помощь,59.8785431,30.267582
car_wash,,59.9254735,30.4309246
dentist,Меди,59.9292759,30.4144771
bank,Сбербанк,59.9296323,30.410942
restaurant,Кавказ,59.9282871,30.4064992
car_wash,5 минут,59.9268476,30.4024684
cafe,,59.9294903,30.4107178
bank,Санкт-Петербург,60.0967373,29.9745935
cinema,Курортный,60.0938784,29.9729091
waste_disposal,,60.2418028,29.6813851
waste_disposal,,59.853613,30.3884541
pub,O'Brien's,60.0231846,30.3772081
waste_disposal,,59.8288695,30.1553402
telephone,Телеграф,59.8290641,30.1567114
bar,Гарькуша,59.8328759,30.1483719
post_box,,59.8289918,30.1570488
cafe,Buona Cucina,59.8522938,30.2567395
hospital,Противотуберкулезный диспансер №11,60.0270919,30.323444
pharmacy,,59.9490063,30.4151511
restaurant,Мюнхель,60.0247417,30.2382911
pharmacy,Горздрав,59.7386556,30.5606386
doctors,Кожно-венерологический диспансер №8,59.9339735,30.4062835
pub,Толстый фраер,59.9596727,30.3165208
pub,Толстый фраер,59.9335634,30.3283674
pharmacy,Новая аптека,59.8276836,30.3993302
pharmacy,Аптека №211,59.8286366,30.3993063
cafe,Венера,59.8282072,30.3986067
pharmacy,Фармакор,59.8290341,30.3995007
waste_disposal,,59.9546831,30.3056839
waste_disposal,,59.9562166,30.3055444
cinema,Киностар,59.8960269,30.5174102
cafe,Айс-Град,59.88379,30.4382077
pub,Толстый фраер,60.0140629,30.2637489
post_box,,60.0145322,30.2587696
parking,,59.944608,30.4104497
parking,,59.9406269,30.4140059
pharmacy,Фармакор,60.0224721,30.2435087
cafe,Телега,60.0226947,30.2514053
pub,KwakInn,59.9230492,30.3359236
pub,Толстый фраер,59.9381203,30.347735
restaurant,Maximilian Brauhaus,59.9896845,30.2046856
cafe,Гранд-Кафе,59.8395003,30.2987932
bank,Санкт-Петербург,59.8394078,30.2993828
car_wash,,59.8396238,30.2990941
police,МРЭО № 3 Обособленное Подразделение,59.8395416,30.299394
fuel,Газпромнефть,59.8980445,30.4454425
waste_disposal,,60.0983198,30.2217891
library,Библиотека-филиал №2 «Юбилейная» ЦБС Московского района,59.8412964,30.3262722
bench,,59.8449354,30.3347577
pharmacy,Петербургские аптеки,59.9428294,30.345569
pharmacy,Доктор,59.9459225,30.3484833
pharmacy,Радуга,59.9427008,30.3478653
restaurant,Прага,59.9905426,30.260156
cafe,Таверна,59.9880597,29.7692344
cafe,Take five,60.01847,30.2482459
fuel,,59.8660948,30.2440353
sauna,банный комплекс,59.92396,30.4145098
post_office,Отделение связи №198184,59.9028426,30.2206184
cafe,Кофе Хауз,59.9281738,30.3157681
bank,ВТБ24,59.925099,30.3804859
doctors,,59.9666072,30.4807242
vending_machine,,59.9671927,30.4758288
waste_disposal,,59.9490551,30.3058698
waste_disposal,,59.9499333,30.3040538
pharmacy,,59.8993342,30.2161481
waste_disposal,,59.8451348,30.3345261
waste_disposal,,59.872737,30.2708115
parking,,59.9139488,30.2757981
atm,ВТБ24,59.8475102,30.3210086
atm,Банк Санкт-Петербург,59.8459093,30.3210947
parking,,60.0253237,29.67161
drinking_water,,60.1281413,29.9582312
cafe,Фартук,59.9290366,30.3437058
cafe,Идеальная Чашка,59.9568022,30.3190637
restaurant,Хванчкара,59.9266683,30.3441045
restaurant,Ели-Пили,59.9524487,30.4775349
fast_food,KFC,59.8523086,30.2680832
bar,,60.0165436,30.2544787
pharmacy,Невис,59.955507,30.4893972
fast_food,Subway,60.0912446,30.3797322
waste_disposal,,59.9552144,30.2934939
bar,,59.9554046,30.4892375
waste_disposal,,59.9673976,30.3035713
car_wash,,60.0743813,30.2756765
ferry_terminal,Зимняя пристань,59.9850564,29.7707995
waste_disposal,,59.5704347,30.0642407
bank,Сбербанк,59.5692312,30.0674783
school,Школа-интернат № 424,59.9931856,29.7515116
fast_food,Хесбургер,59.9272752,30.3172718
waste_disposal,,59.9544844,30.2975644
waste_disposal,,59.956098,30.3325043
waste_disposal,,59.9566298,30.328481
waste_disposal,,59.9578491,30.3311203
waste_disposal,,59.9552381,30.3269491
cafe,The wall bar,59.9608607,30.3067921
pub,Репин,59.9626114,30.3087865
waste_disposal,,59.9700321,30.3913603
pharmacy,Первая помощь,59.9706002,30.3897471
pharmacy,Радуга,59.9729781,30.388309
police,,59.9663808,30.3823246
waste_disposal,,59.9644183,30.3112322
waste_disposal,,59.9626486,30.3121035
waste_disposal,,59.96167,30.3269645
waste_disposal,,59.962143,30.3238948
waste_disposal,,59.9632963,30.322669
waste_disposal,,59.9405829,30.2409065
cafe,Синнабон,59.9676313,30.3143051
pharmacy,Радуга,59.9616386,30.2923027
waste_disposal,,59.9504532,30.3028969
waste_disposal,,59.9507401,30.2977156
car_wash,,59.7526487,30.6078607
telephone,,59.7457055,29.7343445
telephone,,59.7428193,29.7417545
waste_disposal,,59.7491273,29.7354542
telephone,,59.9660388,30.3121571
telephone,,59.9661999,30.3126828
waste_disposal,,60.221302,30.5544635
fountain,,59.9623455,30.3090435
waste_disposal,,59.9589825,30.3027283
waste_disposal,,59.9238238,30.4489305
restaurant,RED,59.9616165,30.3064656
waste_disposal,,59.9792663,30.3020122
waste_disposal,,59.9684968,30.3064968
waste_disposal,,59.9682827,30.3059041
fast_food,Шаверма,59.9329804,30.3482103
toilets,,59.8806299,29.9043275
compressed_air,,59.9407809,30.5033825
parking,,59.987089,30.4433295
toilets,,60.0091855,30.3695926
cafe,Пироговый дворик,60.0096197,30.3693472
bank,Магазин 24 часа,60.0095035,30.3700838
restaurant,Столовая,60.0071999,30.377142
pub,Билл Хук,59.8584941,30.2481551
waste_disposal,,59.9642663,30.2948779
waste_disposal,,59.9318774,30.2442909
bank,Сбербанк,59.9243233,30.3071925
waste_disposal,,60.23086,30.5676317
restaurant,Васаби,59.851202,30.24987
car_wash,,60.0114446,30.6652413
car_wash,,59.9943551,30.6572045
pub,,59.8773571,30.9868011
cinema,,59.8752103,30.9823718
waste_disposal,,59.9575254,30.2955611
pharmacy,Здоровье,59.8402337,30.4925222
waste_disposal,,59.9651224,30.2856862
waste_disposal,,59.9623789,30.2914734
waste_disposal,,59.9611175,30.2883431
waste_disposal,,59.9595268,30.2976656
ferry_terminal,,59.9279923,29.7806298
waste_disposal,,59.8873417,29.8623535
waste_disposal,,59.888633,29.8631727
waste_disposal,,59.8896002,29.8638873
police,Пост ДПС,59.8090997,30.1672107
police,Пост ДПС,59.8089557,30.1678991
fast_food,,59.8897869,30.2792329
restaurant,Canolli,59.8891841,30.2783316
police,,59.8945875,30.2800268
waste_disposal,,59.9587853,30.3438752
waste_disposal,,59.9609854,30.3432141
waste_disposal,,59.8915837,30.4229492
police,Отдел полиции №70 ГУВД Санкт-Петербурга и Ленинградской области,59.912463,30.4993687
police,Отдел полиции №23 ГУВД Санкт-Петербурга и Ленинградской области,59.9126542,30.4991844
ferry_terminal,ракета в петергоф,59.9420549,30.3140462
pharmacy,Фармакор,59.8275787,30.2231662
waste_disposal,,59.8263566,30.2123692
waste_disposal,,59.8268967,30.214674
cafe,Чайная ложка,59.9259851,30.3164358
restaurant,Евразия,59.9238364,30.3104247
waste_disposal,,59.8854118,30.3208531
atm,,59.9278847,30.4034923
atm,,59.9289593,30.4118076
bank,,59.9304122,30.4335243
toilets,,59.9299075,30.4347464
atm,,59.9308673,30.4321025
atm,,59.9301808,30.4342431
fast_food,Картошка,59.930396,30.4316038
toilets,,59.9304369,30.4313715
pharmacy,,59.9303261,30.4338246
parking,,59.9301994,30.4329854
restaurant,,59.9298786,30.415218
restaurant,,59.9286348,30.4091135
restaurant,Баку,59.9358501,30.336173
bar,Cocabar,59.9351958,30.3352888
cafe,Mini,59.9350935,30.3357765
bar,Бегемот,59.9352252,30.3358441
fast_food,Теремок,59.8316596,30.5046903
bank,Санкт-Петербург,59.8322177,30.5054052
restaurant,Pizza Ollis,59.8324421,30.5063395
casino,Лотерейный клуб,59.8331606,30.506643
pharmacy,Лекрус,59.8277859,30.2169568
waste_disposal,,59.8269398,30.2255955
toilets,,59.8794888,30.2615585
library,Рыбацкая библиотека,59.83905,30.4996561
restaurant,СольФаСоль,59.913343,30.4750886
toilets,,59.9546411,30.3570393
toilets,,59.9554514,30.357045
pharmacy,,59.8357998,30.3509324
post_office,Кузьмоловский 188663,60.1090792,30.4955377
restaurant,Вечер,60.1094642,30.4939083
waste_basket,,59.9030977,30.4638648
waste_disposal,,59.9043836,30.4582858
waste_disposal,,59.9051529,30.4584682
police,Участковый пункт №5,59.8284453,30.1570809
pharmacy,Первая Помощь,59.85099,30.2072392
atm,,59.8338339,30.4205653
atm,,59.8335892,30.414345
atm,,59.8330056,30.4149257
bank,Сбербанк,59.7237545,30.4272875
pharmacy,ЛекОптТорг,59.724409,30.4278554
bench,,59.7230369,30.4285013
cafe,ДЮК,59.7213947,30.428819
cafe,Улыбка,59.7220899,30.4272722
pharmacy,Пушкинская аптека,59.7233077,30.4267048
bench,,59.7227953,30.428616
dentist,UNIDENT,59.7242371,30.4279586
veterinary,Ветаптека,59.7232411,30.4266619
telephone,,59.7238933,30.4277083
pharmacy,,59.7259239,30.4270572
waste_disposal,,59.9718839,30.9349198
waste_disposal,,59.9377121,30.9650626
restaurant,Старый Тбилиси,59.9321121,30.2403963
driving_school,Автошкола «Зеркало»,59.9330707,30.2393597
waste_disposal,,59.9328072,30.2409419
veterinary,Синий крест,59.9334107,30.238481
waste_disposal,,59.9327748,30.2370569
bank,Сбербанк,59.9320281,30.2413082
library,Библиотека №4,59.9327955,30.2394883
waste_disposal,,59.9302259,30.2384491
pharmacy,Лека-фарм,59.931096,30.2403504
community_centre,ПМК «Маяк-олимпикс»,59.9299914,30.2388518
waste_disposal,,59.9311702,30.2400604
waste_disposal,,59.9306372,30.2417052
college,СПб государственная академия театрального искусства,59.931189,30.2385561
community_centre,ПМК «Центр туристской подготовки»,59.9309957,30.2379548
college,International Academy,59.9306333,30.2427505
bench,,59.9301154,30.2382738
community_centre,ПМК «Планета»,59.929901,30.2382254
doctors,Косметологическая поликлиника,59.930581,30.243633
cafe,Диана,59.9309604,30.2404055
cafe,Кабанчик,59.9306022,30.2411061
bank,Банк Александровский,59.9306415,30.2403654
police,ДПС,59.8308487,30.2547934
doctors,Анализ крови,59.9289294,30.2409123
restaurant,Золотая панда,59.9279384,30.2419498
waste_disposal,,59.9280092,30.2417598
cafe,Ганджина,59.928717,30.2403569
atm,,59.9277822,30.2420229
police,Пост ДПС,59.8210426,30.416599
police,ДПС,59.8869837,30.5042529
college,Юридический институт,59.928314,30.2425701
police,Участковый пункт милиции №9,59.9286767,30.2448111
pharmacy,,59.5720146,30.1258821
cafe,Колибри,59.5709809,30.1263659
restaurant,Грин Холл,59.5720869,30.1253896
waste_disposal,,59.9298684,30.2452103
pharmacy,,59.8490189,30.3174595
atm,Сбербанк,59.7474406,30.4973318
waste_disposal,,59.7477062,30.5900154
cafe,Bona Capona,59.7226443,30.4132662
bank,Сбербанк,59.7341667,30.5825184
waste_disposal,,59.9634616,30.3313583
waste_disposal,,59.6276056,30.7721832
atm,,59.719585,30.4135361
restaurant,Мама Рома,59.9884977,30.2017883
cafe,Гранд Кафе Поместье,59.7185977,30.4070406
fast_food,KFC,60.0378528,30.3207297
fast_food,Subway,59.9364333,30.3151765
post_office,Пушкин 1,59.717441,30.4061223
pharmacy,Фармакор,59.7174611,30.4056157
cafe,У Густерина,59.7171418,30.4051356
kindergarten,Детский сад №73 «Василёк»,59.9313961,30.2424758
cafe,Квартирка,59.9421173,30.2801347
cafe,Gilavar,59.9125596,30.3462703
waste_disposal,,60.0814439,30.25858
cafe,Флора,59.7195241,30.4088015
restaurant,Хлебниковъ,59.7194793,30.4087464
restaurant,Белый Кролик,59.7188862,30.4095062
nightclub,D&D,59.7191194,30.4090367
cafe,Кофе-Хаус,59.9470484,30.3597623
fast_food,Hesburger,59.9475302,30.3597568
post_box,,59.7188279,30.4078917
social_facility,Лига жизненной помощи людям с проблемами развития,59.9301538,30.2448745
cafe,Суши-бар «Ки-До»,59.9292358,30.2476682
community_centre,ПМК «Фонарик»,59.9302355,30.2464874
doctors,Судебно-психиатрическая экспертиза,59.9310067,30.2470787
cafe,Магазин пирогов,59.9306288,30.2462723
community_centre,Центр детского творчества «Изюминка»,59.9296669,30.2458935
post_box,,59.9312288,30.2459384
bench,,59.9301633,30.2465223
embassy,Консульство Республики Сейшельские Острова,59.9328229,30.2480228
cafe,Клио,59.9304705,30.2449972
kindergarten,Частный детский сад «Изюминка»,59.9290818,30.246383
social_facility,Центр социальной реабилитации детей и подростков с ограниченными возможностями,59.9312289,30.2485647
waste_disposal,,59.9313076,30.2464826
waste_disposal,,59.9329777,30.2464626
drinking_water,,59.9164814,30.8419216
waste_disposal,,59.9334235,30.2491505
mortuary,,59.9310323,30.2498983
cafe,Старый двор,59.9335159,30.25414
cafe,Алекс,59.9332323,30.2530314
nightclub,Данс-холл «Анна»,59.9335395,30.2539326
library,,59.933448,30.252259
theatre,Домино,59.933617,30.2542495
waste_disposal,,59.9318485,30.2508856
exchange,Биржа Санкт-Петербург,59.9331459,30.2569726
bar,Бильярд-клуб «Гавань»,59.9339558,30.2557912
pharmacy,Первая Помощь,59.9315614,30.2506156
waste_disposal,,59.9339154,30.2533408
place_of_worship,Церковь Рождества Пресвятой Богородицы,59.7154436,30.4125375
clock,,59.7158391,30.4136977
restaurant,Солнечная Долина,59.8144287,30.5645552
cinema,Авангард,59.7181668,30.411718
waste_disposal,,59.9633199,30.4333135
cafe,На дне,59.7156906,30.4086969
restaurant,Хуан Гун,59.7157989,30.4088453
pharmacy,Фармакор,59.7160164,30.4100955
bench,,59.9311056,30.2563366
nightclub,Jambala,59.9299614,30.2543689
social_facility,Дом престарелых,59.9294647,30.2530675
waste_disposal,,59.9297481,30.2531733
bench,,59.931464,30.2575482
waste_disposal,,59.9301272,30.2571228
bench,,59.9310579,30.2561588
bench,,59.9314081,30.2573745
pub,Patrick Pub,59.9317266,30.2582705
bank,ВТБ Северо-запад,59.9308378,30.255473
cafe,Долина,59.9300398,30.2526043
pharmacy,Горные вершины,59.8142103,30.5642137
pharmacy,,59.8154808,30.5745341
cafe,Форум,59.8112572,30.5692703
post_office,Почта,59.8084622,30.5759157
school,Liden & Denz - Language School,59.9376489,30.3371358
bank,Балтийский Банк,60.0066164,30.2567788
bank,Сбербанк,60.0177509,30.23843
clock,,59.9273638,30.3383105
restaurant,Васаби,60.0505105,30.3489304
bank,Банк Москвы,59.9192019,30.3537045
cafe,Кемер,59.9268472,30.3289883
police,,59.9272271,30.3281029
cafe,Кунак,59.9270824,30.3243779
pharmacy,Петербургские аптеки,59.9286402,30.3227524
fast_food,Столовая Ложка,59.9326823,30.315511
post_box,,59.9276149,30.2441162
cafe,Колоб'ОК,59.7248205,30.4138477
kindergarten,Детский сад №42 присмотра и оздоровления,59.9339756,30.2367364
kindergarten,Детский сад №41,59.9364754,30.2348468
driving_school,Смольнинский СТК,59.9363844,30.2376823
waste_disposal,,59.9372541,30.2360838
kindergarten,Детский сад №42 присмотра и оздоровления,59.9339999,30.2381147
waste_disposal,,59.9358977,30.2355772
doctors,Кожно-венерологический диспансер №1,59.9339864,30.2359773
waste_disposal,,59.934731,30.2372081
sauna,,59.9361881,30.235813
waste_disposal,,59.9370383,30.2371068
kindergarten,Детский сад №50,59.9355483,30.2359102
restaurant,San Pizzerino,59.7341409,30.4207849
stripclub,Maximus,59.9348681,30.3171393
fast_food,Теремок,59.9358698,30.3168504
bank,ББР Банк,59.9362503,30.3178999
restaurant,Евразия,59.9363251,30.3173048
bank,Связь Банк,59.9346648,30.3154779
restaurant,Jérôme,59.9342957,30.3131635
restaurant,Евразия,59.9352687,30.3160595
cafe,Cafeteria-Столовая,59.9348719,30.3379779
bank,Уралсиб,59.9375699,30.3380027
bank,Санкт-Петербург,59.9318173,30.3349711
fast_food,Столовая от ЭКО ферма «Семейная»,59.9243299,30.3058882
bank,ВТБ24,59.933806,30.3121128
bank,ВТБ,59.9337321,30.3127966
bank,Балтийский банк,59.958721,30.3506834
restaurant,Ферма,59.9583792,30.3425145
cafe,,59.9586136,30.3346601
restaurant,Флора,59.7161241,30.4038139
fast_food,Keb House & Good Coffee,59.7178653,30.4016147
cafe,Венская кофейня,59.9358125,30.3243442
pharmacy,Невис,59.9319142,30.32809
pub,,59.9268569,30.4143812
theatre,Приют комедианта,59.9291238,30.3230278
restaurant,Jager Haus,59.9290194,30.3214791
bar,Hugs,59.9307805,30.3211077
restaurant,Conchita Bonita,59.9293186,30.3205951
pharmacy,Фиалка,59.9282154,30.3191939
cafe,Scoozi,59.9298678,30.320279
pharmacy,,59.9285415,30.3453555
cafe,Ботардо,59.9516963,30.3213466
toilets,,59.9490381,30.3163348
toilets,,59.9501787,30.3208118
toilets,,59.9501639,30.3138389
toilets,,59.7169597,30.3983484
pharmacy,Фармакор,60.0110473,30.2613227
waste_disposal,,59.7424495,30.5843401
waste_disposal,,59.7461243,30.5901398
post_box,,59.9964547,30.1936234
waste_disposal,,59.9971271,30.1948415
waste_disposal,,59.9960749,30.1946696
pharmacy,,60.0073816,30.2008458
pharmacy,Первая Помощь,59.9336047,30.314593
cafe,Киликия,59.930395,30.319713
restaurant,Холст Масло,59.9373691,30.3178849
clock,,59.7208162,30.4048338
waste_disposal,,60.2154034,30.5413162
restaurant,Гастроном,59.9422373,30.329813
toilets,,59.8769284,30.4416708
restaurant,Тепло,59.9321985,30.3052693
pharmacy,,59.9572688,30.2288603
pharmacy,Фиалка,59.960041,30.2287669
pharmacy,,59.9517482,30.2165272
cafe,,59.9526876,30.213679
cafe,,59.9525134,30.214949
pharmacy,,59.9543698,30.2177515
pub,Пивные погреба,59.9550569,30.2131948
bank,Сбербанк,59.9547306,30.21516
shop,,59.9497747,30.2258348
bank,Сбербанк,59.9496084,30.2279376
shop,Мир сумок,59.9493777,30.2316284
pharmacy,Балтика-Мед,59.9502521,30.2321648
cafe,Пироговый дворик,59.9591026,30.3498358
bank,Сосьете Женераль Восток,59.9595956,30.3345311
bank,Глобэкс,59.9593754,30.3345525
dentist,,59.9842251,30.3410772
cafe,Жела,59.7223236,30.4062686
cafe,Стас,59.7235148,30.4037211
bar,"бильярдный клуб ""Премьер""",59.7234771,30.4036688
fast_food,Макдоналдс,59.9198292,30.3540671
fountain,"Шутиха ""Дубок""",59.8853021,29.9175103
fountain,каскад Шахматная гора,59.8832257,29.9166471
fountain,Водяная дорога,59.884414,29.9174807
fountain,Шутиха-скамейка,59.8866225,29.9182876
fountain,"Шутиха ""Грибок""",59.8851737,29.918517
fountain,Шутиха-скамейка,59.8864633,29.9193354
parking,,59.9043821,30.4204347
waste_disposal,,59.9574903,30.3066943
library,Санкт-Петербургская государственная библиотека для слепых,59.9599631,30.2990569
pub,O'Briens,60.0118639,30.2790408
pharmacy,36'6,59.9275494,30.3750811
drinking_water,,59.7306486,30.349019
drinking_water,,59.7323682,30.3514187
drinking_water,,59.7338489,30.3476121
drinking_water,,59.7334873,30.3504543
drinking_water,,59.7323699,30.3442062
drinking_water,,59.7296681,30.3517147
drinking_water,,59.7342456,30.3498521
drinking_water,,59.7312327,30.3473648
restaurant,Дом карри,59.9268619,30.2958565
restaurant,Евразия,59.7249323,30.406274
veterinary,"Ветеринарная клиника ""Манул""",59.7232423,30.4076432
police,МРЭО,59.724173,30.4237712
cafe,Чайный Дом,59.9297704,30.3446147
police,Пост ДПС,59.9087455,31.0089489
fuel,Линос,59.9094002,31.0119816
pharmacy,,59.9890619,30.2155491
bank,Сбербанк,59.9893242,30.2156824
car_wash,Автомойка 24 часа,60.044241,30.3740591
waste_disposal,,59.8678683,30.3332496
toilets,,59.8678061,30.3332937
university,Арктический и антарктический научно-исследовательский институт,59.9464697,30.2335144
pub,Ми Фан,59.9458364,30.2367985
pharmacy,Озерки,59.9452182,30.2372327
restaurant,Шервуд,59.943416,30.2350716
kindergarten,Звёздная страна,59.935761,30.2489721
waste_disposal,,59.9379364,30.2432867
waste_disposal,,59.9368357,30.2441484
cafe,Борей,59.9346516,30.2390574
pharmacy,Фармакор,59.9375322,30.2429115
police,УФМС территориальный пункт №7,59.9374536,30.2393212
post_box,,59.9383462,30.2446595
social_centre,Фольклорный ансамбль «Жерёдочки»,59.9371976,30.2419845
post_box,,59.9342001,30.242899
bench,,59.9380197,30.2441536
waste_disposal,,59.9352486,30.2418578
police,37 отделение милиции УВД В.О.,59.9374713,30.239456
bench,,59.9349189,30.2394514
waste_disposal,,59.9343939,30.2433588
kindergarten,Детский сад №39,59.935427,30.2392684
social_centre,Спорт-клуб «Смена»,59.9349007,30.2401118
bench,,59.9380703,30.2441309
waste_disposal,,59.9342915,30.2403614
doctors,Центр китайской медицины,59.935446,30.2492541
waste_disposal,,59.93532,30.2453227
waste_disposal,,59.9350665,30.2425145
school,Детско-юношеский центр «Васильевский остров»,59.9368393,30.2421428
pharmacy,Аптека №155,59.9340355,30.2394599
atm,Сбербанк,59.8254109,30.3195984
parking_entrance,,59.993302,30.2118203
atm,Сбербанк,59.9415528,30.3951101
atm,Сбербанк,59.8205718,30.3247078
cafe,Рекон,59.7220894,30.3983361
cafe,Новый Кёльн,59.7218089,30.3992435
restaurant,Горный орел,59.9535966,30.309349
pharmacy,,60.2557357,29.6050752
bank,,59.9190486,30.3547731
parking,,59.9204798,30.3633041
pharmacy,ПетроФарм,59.9212876,30.3532068
pharmacy,Первая помощь,59.9216811,30.35294
doctors,Даная,59.9204745,30.3544458
car_wash,FreshAuto24,59.9165099,30.3582135
post_office,Почтовое отделение Оржицы,59.7539372,29.711888
customs,Таможня,59.9439233,30.1849301
restaurant,Пражский дворик,59.5713938,30.1382793
bar,Литейка,59.5715133,30.1380433
cafe,"Шашлычная ""У Бахмана""",60.2729395,29.6656123
pharmacy,Фармакор,60.2561355,29.5914786
pharmacy,Невис,60.2561105,29.6017152
waste_disposal,,60.2565936,29.6013011
restaurant,Ренесанс,60.2557831,29.5922608
waste_disposal,,60.2488294,29.5790256
cafe,,59.9660156,30.4512259
waste_basket,,60.0059093,30.3716757
bench,,60.0059192,30.3716868
car_wash,,59.8718286,30.3457225
pharmacy,Эдифарм,59.7262913,30.4067701
library,Центральная районная детская библиотека,59.7293727,30.4084736
veterinary,Домашний любимец,59.7269882,30.4070465
restaurant,Ротонда,59.7296191,30.4054497
fuel,ПТК,60.1656517,29.9003902
fountain,,59.9205203,30.3270632
telephone,,59.9617478,30.2915045
bank,Сбербанк,59.9681591,30.3095992
bank,Санкт-Петербург,59.9864272,30.3420773
toilets,,59.8206311,30.3245993
atm,Альфа-Банк,59.9068261,30.3074875
atm,Сбербанк,59.9066754,30.3074714
restaurant,Русский Дворик,59.9073946,30.3072959
toilets,,59.9894241,30.2587187
fast_food,Макдоналдс,59.7408668,30.5827978
atm,Сбербанк,59.7406657,30.6110566
pub,The Templet Bar,59.8464112,30.2451866
bench,,59.9413244,30.3955871
waste_disposal,,59.8823104,29.8594787
waste_disposal,,59.8849634,29.859839
car_wash,Экспресс мойка,59.939474,30.4504363
cafe,Шашлычная,59.6982865,30.5902976
cafe,,60.0211414,30.3715397
fountain,Межеумный,59.8815143,29.9071784
pharmacy,,59.8742681,29.8576803
pharmacy,Фармакор,59.8749844,29.8640536
cafe,Трюм,59.8749909,29.8629105
cafe,Квартал,59.8519551,30.3341403
pharmacy,Рубин,59.8519206,30.3324336
fast_food,Бургер Кинг,59.8299495,30.3820927
fast_food,Теремок,59.8535086,30.324767
nightclub,Jagger,59.8537261,30.3031164
atm,Сбербанк,59.9893472,30.2593236
atm,ВТБ24,59.7406637,30.6109882
cafe,У Палыча,59.9962462,29.7671974
pharmacy,Натур Продукт,59.9989631,29.7674541
fast_food,Столовая,59.9355555,30.3349516
cafe,Подворье,59.9980277,29.7668216
waste_disposal,,59.8535742,30.3864006
cafe,Север,59.9347624,30.3329816
pharmacy,Фармакор,59.8586428,30.3788604
restaurant,Дарбарс,59.9220916,30.3513396
restaurant,Одесса-мама,59.9222279,30.3487843
atm,,59.9989009,29.7683017
pharmacy,Социальная аптека №96,59.9980025,29.7675974
pharmacy,Невис,59.8380012,30.2693815
pharmacy,Удачная,59.8409871,30.2555426
pharmacy,Невис,59.9979397,29.7697441
atm,ВТБ24,59.7514452,30.5792156
atm,ВТБ24,59.7415494,30.5646593
bench,,59.7388119,30.4158052
bench,,59.7388471,30.4156038
bench,,59.73883,30.4154543
pharmacy,Радуга,59.9945216,29.7733776
waste_disposal,,60.0432987,30.3243448
police,Участковый пункт милиции № 3,59.9933157,29.7811545
cafe,Кафе-магазин Каравай.,59.9934289,29.778574
veterinary,Зоосервис,59.9932872,29.7884366
bar,На троих,59.9919701,29.7873998
pharmacy,Аптека,59.9917637,29.7869534
atm,Банк Санкт-Петербург,59.8728236,30.3522983
atm,Сбербанк,59.8693139,30.3542174
pharmacy,,59.841297,30.1742776
restaurant,Travels,60.0104688,30.4043153
cinema,Кронверк синема,60.0339135,30.3677726
post_box,,59.8366247,30.2639041
police,Участковый пункт милиции,59.9908535,29.7892827
bank,Сбербанк,59.9907664,29.7892376
post_office,Отделение связи №197762,59.9906732,29.7897503
fast_food,KFC,59.9321379,30.3542654
pharmacy,О3,59.8146225,30.2912028
library,Библиотека-филиал №1 ЦБС,59.9875792,29.7855563
public_building,Управление Пенсионного фонда,59.9900944,29.7887646
pharmacy,,59.8340076,30.4002323
pharmacy,,59.9509546,30.2343838
restaurant,Пироговый дворик,59.9219854,30.4766494
waste_disposal,,59.9359981,30.3100364
pharmacy,Аптека,60.0105204,30.2089467
pharmacy,Невис,60.0084289,30.208438
restaurant,Васаби,59.9129376,30.4461828
pharmacy,Здоровые люди,59.9131236,30.4460148
fast_food,KFC,59.9087971,30.4835081
restaurant,Евразия,59.9087253,30.4831069
pharmacy,Аптека №67,59.836811,30.5013575
bar,Daily,59.933296,30.322331
bank,Траст,59.9306392,30.3239676
fast_food,На Садовой,59.9299122,30.325015
cafe,Кофейня на Садовой,59.9300473,30.3249345
cafe,Золотая середина,59.933163,30.3225916
bank,Сбербанк,59.9327866,30.3222538
restaurant,Сулико,59.9332975,30.3229252
university,СПбГУ ИТМО,59.8595384,30.324109
pharmacy,Петрофарм,59.9360092,30.3226771
pharmacy,,59.9724611,31.0496067
pharmacy,,59.9731805,31.0298871
bar,Кафе Аут,59.970475,31.0417317
library,Филиал №1 библиотеки им. Куприна,59.5683776,30.0588595
fast_food,Бургер Кинг,59.8531162,30.219852
cafe,Чайная ложка,59.8586541,30.2295074
pharmacy,Здоровые Люди,59.9278083,30.3083889
parking,,59.6703797,29.8210272
parking,,59.7204408,30.0609744
parking,,59.6717936,29.838811
fuel,Топливо Киришского НПЗ,59.6682667,29.792596
bank,ВТБ24,59.9268851,30.2971231
cafe,Кофе Хауз,59.8499931,30.2685565
fast_food,Hesburger,60.0589098,30.3374109
fast_food,Макдоналдс,59.9246938,30.3213528
bar,Спорт-Бар,59.9263532,30.320329
fast_food,Сбарро,60.0591382,30.3375952
fast_food,KFC,59.9251708,30.3178782
fast_food,Макдоналдс,59.8509928,30.2680285
restaurant,Barashki,59.9265938,30.3206137
restaurant,Васабико,59.8508579,30.2680254
cafe,Кофе Хауз,59.9262999,30.3202882
fast_food,Теремок,60.0589545,30.337447
fuel,ПТК,59.8599455,30.2583452
cafe,Мельник,59.9316866,30.2581422
cafe,Lindfors,59.9278078,30.3011555
waste_disposal,,59.9273431,30.3015582
bar,Знахарь,59.9273121,30.3032002
restaurant,Море,59.9652406,30.2394008
restaurant,1913 год,59.929123,30.3080573
waste_disposal,,60.0090077,30.3739547
police,,59.8990562,30.2158447
waste_disposal,,59.9001432,30.2172431
waste_disposal,,59.9005686,30.2153416
waste_disposal,,59.9011563,30.2189184
pharmacy,Первая помощь,60.0442034,30.379609
cafe,Наутилус,59.9869207,29.7749829
cafe,Мимино,59.9901613,29.7738029
car_wash,,59.912837,30.4367101
pharmacy,Удачная,60.0443943,30.3787074
bank,Росбанк,60.0445518,30.378034
bank,ВТБ24,60.0445808,30.377869
cafe,Баскин Роббинс,60.0540674,30.3313926
bank,Сбербанк,60.0541935,30.3307292
pharmacy,Фармакор,60.0653668,30.303314
restaurant,Евразия,60.0539462,30.3319741
fast_food,La Cucaracha,60.0337823,30.3675605
fast_food,KFC,60.0334073,30.3679371
fast_food,Розарио,60.0336111,30.3666136
restaurant,Васаби,60.0335671,30.3669832
cafe,Кофе Хауз,60.0337475,30.3680655
fast_food,Теремок,60.0335397,30.367216
bank,Банк Москвы,59.8955985,30.492726
restaurant,Конфуций,59.8537636,30.3037101
pharmacy,Доктор,60.0080792,30.2575022
fast_food,Теремок,59.9342435,30.3394942
pharmacy,Алоэ,59.928885,30.3107519
dentist,Стома,59.9883804,30.2098631
waste_disposal,,60.0095346,30.3708851
post_box,,60.0095919,30.3725171
cafe,Золотой Якорь,59.9892743,29.7632608
theatre,Драматический театр Балтийского флота,59.9891856,29.7637069
restaurant,Евразия,59.8529273,30.2148008
pharmacy,,59.8529661,30.214587
cafe,Волна,59.9120284,30.4698178
bank,Сбербанк,59.9118402,30.469717
cafe,Wild Bean Cafe,59.9048062,30.4549388
atm,,59.9072811,30.4833242
fountain,Водовоз,59.9870141,29.7908791
cafe,Каштан,59.9956817,29.7644216
bank,Петровский,59.9990822,29.767557
pharmacy,Невис,59.9952346,29.7645067
police,УПМ №2,59.9990972,29.7668611
restaurant,Евразия,59.9947715,29.7640705
arts_centre,,59.9870469,29.7921664
atm,,59.9990421,29.7674211
cafe,Пирожковая,59.9929521,29.763189
dentist,Русь Дент,59.9938691,29.7627113
cafe,Трактир,60.000816,29.765246
cafe,Сказка,59.9946408,29.7639683
cafe,,59.9981553,29.7637643
pharmacy,Горные вершины,59.9043596,30.4782705
cafe,Бистро,59.9159429,30.4731562
cafe,Диван,59.9137886,30.4771777
restaurant,Гнездо,59.9173846,30.4738129
cafe,Бистро,59.9080155,30.4805401
pharmacy,Озерки,59.9187387,30.4726596
cafe,Шумли,59.9291766,30.3125264
dentist,Солис,59.9595433,30.4332956
restaurant,Сеул,59.9326144,30.3220998
restaurant,Тесто,59.9298122,30.3141932
fast_food,,59.9341277,30.3129965
bar,Где-то,59.9307256,30.3137367
bank,Восточный,59.9278301,30.3186312
bank,Сбербанк,59.9276508,30.3181761
pharmacy,Лекрус,59.9219668,30.4765585
bank,Балтинвестбанк,59.9195483,30.4648875
bank,Сбербанк,60.0159937,30.322981
fast_food,Тарелка столовая,59.9211207,30.355725
cafe,Allegro,59.9291196,30.315315
cafe,Чайникофф,59.9275569,30.3179522
pharmacy,Аптека,59.9095781,30.4491803
waste_disposal,,60.0075395,30.3737379
restaurant,Апшерон,59.9287747,30.3103378
fast_food,Ollis Club,59.9295171,30.3137978
restaurant,Харбин,59.9328525,30.3160872
restaurant,Shatush,59.9318263,30.3110893
cafe,Обед-сервис,59.9292064,30.312642
pharmacy,Vita,59.8788932,30.3207313
dentist,Стома-Люкс,59.8778275,30.3208047
cafe,Кофе Хауз,59.8792594,30.3207234
bank,Балтийский банк,59.879401,30.320726
atm,,59.8805483,30.3207076
waste_basket,Помойка садоводства Центр,60.2575683,29.8152972
restaurant,Леонардо,59.9300601,30.3443343
waste_disposal,,59.7724009,30.3305564
pharmacy,,59.8101527,30.381346
restaurant,Две палочки,59.9359513,30.3231388
waste_disposal,,59.7698513,30.330849
waste_disposal,,59.7698247,30.3352373
cafe,Алазани,59.9263062,30.3075817
waste_disposal,,59.7721508,30.3233106
restaurant,Библиотека вкусов,59.9361245,30.3218511
fast_food,Макдоналдс,60.0586161,30.4828275
nightclub,Franki,59.9272934,30.3235544
bar,Все твои друзья,59.9276099,30.3084068
fast_food,Пицца Оллис,60.0019866,30.2546307
waste_disposal,,59.899071,30.4644284
bank,,59.9012957,30.4641431
waste_disposal,,59.898651,30.4669128
bank,Банк Москвы,60.053806,30.3345652
fountain,,59.9304817,30.3090649
pharmacy,Невис,59.9570648,30.3074983
atm,,59.9572597,30.3083944
bank,Петровский банк,59.9572849,30.3072845
atm,,59.9125267,30.4199798
bank,Российский капитал,59.9275231,30.3063795
car_wash,Автомойка,59.9136231,30.5000348
pharmacy,Зелёная линия,59.9264557,30.3144743
car_wash,Опель-центр,59.83914,30.2998065
restaurant,Цзао Ван,59.926885,30.3088212
bank,Открытие,59.9357448,30.3251193
cafe,Зингеръ,59.9356104,30.3260011
kindergarten,Детский сад №25,59.9288147,30.3548382
fast_food,Столовая № 1,59.9311299,30.3550123
car_wash,Автомойка,60.0258512,30.2369378
car_wash,Автомойка,60.0265489,30.2357182
car_wash,Автомойка,60.0264989,30.2423282
pharmacy,,59.9282745,30.4715194
bank,Сбербанк,59.9309513,30.472707
bank,АК Барс банк,59.9304281,30.3527458
bank,Балтийский банк развития,59.9296946,30.3548266
restaurant,Гонконг,59.9259473,30.3164969
veterinary,Три кота,59.9206686,30.4196457
police,Участковый пункт полиции (52 отделение),59.9208502,30.4194705
waste_disposal,,59.9396918,30.2809633
telephone,,59.9426895,30.2779353
waste_disposal,,59.9417216,30.2776276
parking,,59.942301,30.2772827
atm,,59.9427293,30.2782135
parking,,59.9401515,30.2757629
waste_disposal,,59.9402619,30.2770483
restaurant,Тан Жен,59.9278749,30.3052115
cafe,У камина,60.0142221,30.2610466
pharmacy,,60.0151736,30.2647186
sauna,Баня,60.0150793,30.2648214
car_wash,Автомойка,60.0184545,30.2679241
cafe,,60.0183993,30.2681668
fuel,Выборгская топливная компания,60.2590539,29.8414774
fast_food,Телепицца,60.0076148,30.249457
pharmacy,Экономь,59.9274253,30.4137469
pharmacy,Ромашка,59.9002718,29.7747102
pharmacy,Nevis,59.9016472,29.7714808
pharmacy,Невис,59.9055825,29.7790666
cafe,,59.9065229,29.7796816
fast_food,Блины,59.8507593,30.324831
restaurant,O'CUBA,59.927944,30.3435468
pub,Базара нет,59.9280899,30.3432936
fast_food,,59.8735156,29.8274923
bank,ВТБ,60.0200225,30.6451787
restaurant,Васаби,60.0189291,30.6475803
hospital,Медицинский центр СПбГУ,59.8818735,29.8292773
waste_disposal,,59.7370788,30.9835685
drinking_water,,59.9255393,29.6725584
bank,Петроэлектросбыт,59.8954587,30.4268033
police,Участковый пункт полиции №2,59.898255,30.4284867
cafe,Проспект,59.898912,30.4296666
pharmacy,Петербургские аптеки,59.8960789,30.4245014
bank,Сбербанк,59.8968848,30.4245775
pharmacy,Озерки,59.8963396,30.4239546
post_office,Отделение связи №197733,60.1879741,29.8070171
waste_basket,,59.8794251,29.8265579
waste_disposal,,59.878768,29.8304922
waste_disposal,,59.8799135,29.8304237
restaurant,Центральная столовая,59.9412192,30.3942814
bank,Сбербанк,59.9421829,30.39662
restaurant,Охотничий клуб,59.9425281,30.3937764
waste_disposal,,59.9510508,30.2349474
waste_disposal,,59.9021816,30.4666722
cafe,Третий тайм,60.2579424,29.5974895
post_box,,59.7701936,30.3346068
waste_disposal,,59.768499,30.3245756
toilets,,59.865777,30.3246818
fast_food,Микс,59.9878806,30.2555711
post_box,,59.7304962,30.3476811
pharmacy,Фармакор,59.9208648,30.4910408
atm,Сбербанк,59.9716576,30.3202096
fountain,Мальчик с уткой,59.9449913,30.3742183
cafe,Рюмочка,59.9254098,30.4160947
bank,ВЕФК,59.9280397,30.4121925
library,,59.9252154,30.4153072
cafe,Пышечная,59.9279017,30.4122163
waste_disposal,,60.0049543,30.3587883
cafe,Кинг Понг,59.9352944,30.316912
cafe,Теремок,59.9409869,30.2807543
cafe,Coffeeshop company,59.9417042,30.2799336
bar,Sultan,59.9403925,30.281452
pharmacy,Первая помощь,59.9394037,30.28211
cafe,Marketplace,59.941225,30.2805201
waste_basket,,59.940965,30.2808696
gambling,Лото,59.9414111,30.2792773
waste_basket,,59.9403387,30.2815872
waste_basket,,59.9418104,30.2798597
waste_basket,,59.9402361,30.2817144
waste_basket,,59.9420789,30.2795492
waste_basket,,59.9421853,30.2794309
waste_basket,,59.9419199,30.2797325
waste_basket,,59.940026,30.281953
police,Участковый пункт милиции №1,59.9385531,30.2825692
waste_basket,,59.9404144,30.2814997
cafe,Чайная ложка,59.9395067,30.2824865
waste_basket,,59.9421604,30.2794589
waste_basket,,59.9403636,30.2815574
bar,Münhell,59.94216,30.2794102
waste_basket,,59.9419374,30.2791713
beauty,Заноза,59.9419635,30.2791612
dentist,"Северо-западный окружной медицинский центр, стоматологическое отделение",59.9381648,30.284016
bar,Mini,59.9380334,30.284181
fast_food,,59.9392532,30.2816277
cafe,Кэтино,59.9394299,30.2798883
university,Северо-западная академия государственной службы,59.9381821,30.2831013
parking,,59.9376438,30.2840021
waste_basket,,59.9380433,30.2842586
post_box,,59.9389888,30.2803113
pharmacy,Аптека доктора Пеля и сыновей,59.9382076,30.2839663
parking,,59.9379347,30.2822968
doctors,Клиника доктора Пеля,59.9381718,30.2839345
police,Участковый пункт милиции №3/1,59.9396004,30.2808847
kindergarten,Детский сад №3 «Андрейка»,59.938538,30.283467
fast_food,Хычины,59.9425836,30.2774324
bench,,59.9406998,30.2783856
waste_basket,,59.9425478,30.277172
dentist,Городская стоматологическая поликлиника №2,59.9415342,30.2773887
gambling,Руслото,59.9424462,30.2769732
bank,Промсвязьбанк,59.9423536,30.2767089
cafe,Ливанская шаверма,59.9420221,30.2770488
bench,,59.9407285,30.278411
parking,,59.9417204,30.2782515
pub,Толстый фраер,59.9417373,30.2771382
cafe,Пирог,59.9423974,30.2768122
university,Институт высокомолекулярных соединений РАН,59.9386144,30.2794739
fast_food,Пышки,59.9393299,30.2792394
fast_food,KFC,59.9421602,30.2759872
pub,KwakInn,59.9381694,30.2780482
restaurant,Небесный дворец,59.938146,30.2779706
cafe,Учкудук,59.9391137,30.2795438
atm,,59.941842,30.275678
cafe,,59.9408907,30.2766382
atm,,59.9418317,30.2756452
fast_food,Копейка,59.941722,30.276005
bar,Амазонка,59.9404159,30.2779783
atm,,59.9416723,30.2765413
atm,,59.9419206,30.2758111
credit,Ренессанс Кредит,59.9408453,30.2775062
dance,Studio 77,59.9411571,30.2766432
bank,Совкомбанк,59.9394077,30.27914
dentist,МедИнфо,59.9392661,30.2793357
bank,Бинбанк,59.9410771,30.2772515
cafe,Pizza Hut,59.9419704,30.2762306
atm,,59.9410522,30.2772702
bank,МДМ Банк,59.9418192,30.2763798
restaurant,Сайхо,59.9412647,30.2743519
language_school,Курсы иностранных языков,59.9400235,30.2769734
atm,,59.9429217,30.2773069
embassy,Генеральное консульство Латвийской республики в Санкт-Петербурге,59.9389587,30.2770375
police,Участковый пункт милиции №3,59.9396476,30.2762791
university,Российская правовая академия министерства юстиции РФ,59.9406202,30.2751333
cafe,Под гвоздём,59.9416308,30.2741892
parking,,59.9413397,30.2755481
waste_disposal,,59.9412712,30.2746611
fast_food,Бургер Кинг,59.9419318,30.2752441
atm,,59.9419175,30.2761217
waste_disposal,,59.9002639,30.4633685
waste_basket,,59.9012042,30.4663109
restaurant,Васабико,59.9867708,30.300695
restaurant,Пиворама,59.9246285,30.3868303
cinema,Веснушка,59.8607521,30.2495028
cafe,Мертвец,59.8608167,30.2495028
restaurant,Розарио,60.0009488,30.266119
restaurant,Васаби Family,60.0008998,30.2662135
waste_disposal,,59.7332562,30.3265129
fast_food,Макдоналдс,59.8932883,30.5145837
cafe,Венская кофейня,59.9256813,30.3205231
cafe,coffeeshop,59.9260561,30.3206208
waste_disposal,,59.927685,30.38156
atm,,59.9222924,30.4179994
cafe,На Рижской,59.9225141,30.4183763
bank,Сбербанк,59.9222678,30.4179134
cafe,Ангел,59.914383,30.4865563
bench,,59.9382145,30.2820443
waste_disposal,,59.9372499,30.2873618
bench,,59.9382683,30.2822247
parking,,59.9378821,30.2872771
parking,,59.937159,30.2872479
parking,,59.9384834,30.2848617
parking,,59.9360002,30.2816378
waste_basket,,60.0033811,30.3774759
bench,,60.0033869,30.3774667
fast_food,,59.9381023,30.2813234
pub,The 8th Line Pub,59.9371983,30.2824331
bench,,59.9373391,30.2821592
waste_basket,,59.9373866,30.2821067
cafe,Петербург,59.936834,30.2828192
cafe,Версаль,59.9375977,30.2819267
waste_basket,,59.9373654,30.2821286
kindergarten,Детский сад №6,59.9379384,30.2815283
restaurant,Brasserie Repin,59.93728,30.2823369
bank,Гефест,59.9382549,30.2814657
bench,,59.9373107,30.2821898
university,Институт русского языка и культуры,59.9358087,30.2826343
clock,,59.9354464,30.2816659
cafe,Пуэр,59.9356285,30.2821926
waste_disposal,,59.9361931,30.2815825
school,Школа №27,59.9354221,30.2814641
college,Факультет довузовского образования,59.9372522,30.2794442
customs,Санкт-Петербургская таможня,59.9374331,30.2814709
printing_establishment,Первая академическая типография «Наука»,59.9377644,30.281067
university,Государственный университет Высшая школа экономики,59.9367315,30.279711
university,"Факультет филологии и искусств, институт искусств",59.936002,30.283157
school,Школа №700,59.9369001,30.2820665
driving_school,Светофор,59.9361334,30.2830186
school,Дом детского творчества,59.9371296,30.2818217
soccer_club,Футбольный клуб «Динамо»,59.9361991,30.2829428
post_box,,59.9888059,30.3435797
cafe,Пироговый дворик,59.9858749,30.345261
cafe,"Кафэ-бар ""Петербургеры""",60.0097532,30.3698088
waste_disposal,,59.8353002,30.3982482
waste_disposal,,59.8357443,30.3941497
cafe,,59.8384966,29.8783695
atm,,59.9389852,30.2839887
kindergarten,Детский сад №21,59.9382862,30.2867184
waste_basket,,59.9392498,30.284735
marketplace,Василеостровский рынок,59.9394766,30.2857964
toilets,,59.9387937,30.2853894
clock,,59.939263,30.2849192
waste_basket,,59.9392338,30.2846811
arts_centre,Галерея «Шахматный клуб»,59.9385353,30.2857667
pharmacy,Фармакор,59.9387124,30.2840496
school,Шахматная школа Александра Халифмана,59.9386048,30.2856848
bank,Индустриальный сберегательный банк,59.9378671,30.2851562
cafe,,59.7474252,30.4996226
pharmacy,,59.9010848,30.4643058
fast_food,Крошка-картошка,59.9850917,30.3446885
clinic,Медицинский офис Инвитро,59.8954002,30.4214408
doctors,"Центр восстановительного лечения имени С.С. Мнухина ""Детская психиатрия""",59.8966089,30.4303419
driving_school,,59.937318,30.2875417
arts_centre,Lazarev Gallery,59.9372715,30.2858443
arts_centre,Markov Gallery,59.9366295,30.2870391
restaurant,Русский китч,59.9365302,30.2866726
library,Научная библиотека СЗАГС,59.9446848,30.2741283
library,Фундаментальная библиотека им. императрицы Марии Фёдоровны РГПУ им. А. И. Герцена,59.9348596,30.3204488
library,Санкт-Петербургская государственная библиотека для слепых,59.9603832,30.3007327
library,Научная библиотека им. М. Горького СПбГУ,59.9422709,30.298538
library,Библиотека СПбГУИТМО,59.9569101,30.3083078
library,Библиотека СПбГУКИ,59.946523,30.3313678
library,Научная библиотека СПбГЭУ,59.9317069,30.3253297
library,Фундаментальная библиотека СПбГЭТУ,59.971128,30.3198834
pharmacy,Озерки,59.8427357,30.2521072
dentist,Дельта дент,59.9242061,30.4056417
clinic,Центр репродуктивной медицины,59.9255425,30.4089193
cafe,Аудитория,59.9230017,30.4057466
atm,Сбербанк,59.9595598,30.3024365
cafe,Cafe Mirage,59.9595005,30.302276
atm,Открытие,59.9595689,30.3024166
bank,Сбербанк,59.6231145,30.392434
pharmacy,,59.6203157,30.3863712
pharmacy,Аптека №68,59.6224559,30.3931628
theatre,Дом культуры,59.6216819,30.3940654
library,,59.62114,30.3912563
townhall,,59.6194006,30.3924305
post_office,Почта России,59.6219313,30.3930415
cafe,,59.6251534,30.3903335
college,Профессиональный лицей петербургской моды,59.9577049,30.3006146
waste_basket,,59.959578,30.3022373
doctors,Здоровье+,59.9588683,30.3029462
restaurant,Евразия,59.9589683,30.3014372
dentist,Венера Дент,59.9578271,30.3016146
atm,,59.9588927,30.3012701
doctors,Венера,59.9579108,30.3014244
kindergarten,Детский сад №1,59.9590549,30.3038305
bank,Балтинвестбанк,59.9589104,30.3012958
post_box,,59.9586206,30.3007739
waste_basket,,59.9596118,30.3022952
offices,Бизнес-центр «Петроградский»,59.9581566,30.3001082
fast_food,Кура-гриль,59.9575955,30.299792
waste_disposal,,59.9611222,30.3056446
waste_disposal,,59.9620517,30.3073932
bench,,59.962771,30.3060193
bench,,59.9627641,30.3060367
bench,,59.9626165,30.3060713
bench,,59.9626074,30.3060575
waste_disposal,,59.9892671,30.2183379
post_box,,59.9638734,30.3027821
bench,,59.9635747,30.2943214
bench,,59.9628255,30.2935339
cafe,Суши Wok,59.963158,30.2943694
bench,,59.9636962,30.2945302
bench,,59.9627577,30.2935593
bench,,59.9635281,30.2944315
bench,,59.9636539,30.2946347
drinking_water,,59.7273088,30.3533707
drinking_water,,59.7287877,30.3567406
drinking_water,,59.7271681,30.3486743
drinking_water,,59.728619,30.3441081
waste_disposal,,59.7263947,30.3512361
drinking_water,,59.726365,30.3545915
waste_disposal,,59.7300097,30.3483506
drinking_water,,59.7304108,30.3437085
drinking_water,,59.7263121,30.3519515
drinking_water,,59.7299064,30.3621967
drinking_water,,59.7278184,30.346509
drinking_water,,59.7292632,30.3415845
bank,Энергомашбанк,59.9640431,30.2905575
bank,Сбербанк,59.964865,30.310348
veterinary,Кузя и Ко,59.6216673,30.3959574
waste_disposal,,59.9610919,30.4338803
fountain,,59.7677505,30.5510691
waste_disposal,,59.9655831,30.3105964
waste_disposal,,59.9653079,30.3098618
cafe,Лаймочка,59.9647798,30.3096575
parking,,59.5858289,29.3147696
fuel,Татнефть,59.7328151,30.1173794
fuel,Киришиавтосервис 228,59.5857362,29.3421133
parking,,59.5869566,29.3190311
dentist,Клиника доктора Ланге,59.9654227,30.310353
cafe,Бистро,59.8968688,30.4329905
cafe,Индиш,59.8990127,30.4295041
cafe,Бегемот,59.8970886,30.4326268
cafe,Наша столовая,59.8969847,30.4328153
waste_disposal,,59.9685926,30.3098108
pharmacy,,59.9684396,30.3093387
restaurant,Япоша,59.9689746,30.3082388
restaurant,Птичий двор,59.9876369,30.2046351
waste_disposal,,59.9673719,30.3117461
theatre,Русская Антреприза имени Андрея Миронова,59.9658616,30.3127349
bench,,59.9618258,30.2921356
bench,,59.9621654,30.2910682
cafe,Буфетъ,59.9625854,30.2899175
bench,,59.9620162,30.2925489
bench,,59.963396,30.2886917
bench,,59.9619661,30.2920251
fast_food,,59.9631513,30.2888363
cafe,Рандеву,59.9627411,30.2896215
cafe,3 ступеньки,59.9619052,30.2917793
bench,,59.9619712,30.2920988
bench,,59.9621576,30.2909752
bench,,59.9633943,30.2887621
bench,,59.9619456,30.2921909
bench,,59.9622074,30.2910695
bench,,59.9618299,30.2920149
bench,,59.9622041,30.2909792
bench,,59.9634312,30.2886704
bench,,59.9618473,30.2919637
bench,,59.9619149,30.2922195
bench,,59.9634288,30.2887457
bench,,59.9619477,30.2919699
fast_food,Теремок,59.9621151,30.2927261
fast_food,PITA'S,59.9677685,30.3124203
fast_food,Теремок,59.9669199,30.3115636
waste_disposal,,59.9621476,30.2860762
dentist,Меридент,59.9671768,30.3110764
pub,SПБ,59.9664455,30.3114102
bank,Сибирский банк развития бизнеса,59.9664213,30.3129122
bank,Траст,59.9671997,30.3135159
restaurant,Grand Cafe Провинция,59.9674736,30.3136339
parking,,59.8560599,30.4719024
cafe,Greenbox,59.965673,30.3140257
waste_disposal,,59.9651619,30.3281052
cafe,Тесто-Плюс,59.9643427,30.3254947
atm,Сбербанк,60.1491791,30.5157968
nightclub,Держись,59.9606992,30.3042221
pharmacy,,59.960676,30.3041759
social_centre,ПМК «Прометей»,59.9595826,30.3047208
parking,,59.9604615,30.3042711
cafe,,59.9600477,30.304712
restaurant,Мари Vanna,59.9613228,30.3063088
bar,Пушкарь,59.9604951,30.306212
cafe,Денисов,59.9599897,30.3053597
recycling,Приёмный пункт вторсырья,59.9610801,30.3057897
doctors,Ортолюкс,59.9615381,30.3066461
cafe,Фреш бар,59.9624542,30.3070277
hookah_lounge,Арабика,59.9673636,30.3149448
bank,Энергомашбанк,59.966365,30.3134145
bank,Абсолют,59.9664187,30.3135862
cafe,Дубай,59.9661519,30.3131246
cafe,Чайникофф,59.9415486,30.2807761
waste_basket,,59.9407395,30.281643
university,Факультет филологии и искусств СПбГУ,59.9407969,30.2818005
bench,,59.9401091,30.2832836
cafe,Чебуречная,59.9412083,30.2811924
library,Библиотека-филиал №2 имени Л.Н. Толстого,59.9409952,30.2814585
bar,Dr. Inki,59.9414161,30.2809553
waste_basket,,59.9407769,30.2815918
atm,,59.9407832,30.2816934
atm,Альфа-банк,59.9428762,30.2792986
social_facility,Отделение экстренной психологической помощи гражданам пожилого возраста «Тревожная кнопка»,59.9416269,30.2809877
school,Детская вокально-театральная студия «Интермедия»,59.9416899,30.2809433
cafe,Троицкий мост,59.9425005,30.2801667
driving_school,Автошкола,59.9415888,30.2815519
school,Частная школа «Ювента»,59.943181,30.2795938
waste_disposal,,59.9418037,30.2815342
waste_basket,,59.9424839,30.2807686
dentist,,59.9426981,30.280791
cafe,,59.9428874,30.2792337
driving_school,Мустанг,59.9428936,30.2803998
waste_basket,,59.9421829,30.2799457
waste_disposal,,59.942429,30.2810396
cafe,Лидо,59.9425642,30.2797309
waste_basket,,59.942567,30.2802918
bank,АМТ Банк,59.9419966,30.2802708
cafe,Синнабон,59.942197,30.2800297
cafe,Плюшкин дом,59.9424895,30.2806791
toilets,,59.9420671,30.2802826
pharmacy,,59.9423414,30.2798953
car_wash,999,59.8498198,30.3403935
restaurant,Гостиная,59.9667459,30.3075364
arts_centre,Артишок,59.9666352,30.3073996
waste_disposal,,59.8551008,30.4728581
waste_disposal,,59.8549534,30.4690159
waste_disposal,,59.8560782,30.4704072
parking,,59.8566559,30.4689945
kindergarten,,59.9673503,30.3054901
atm,,59.9677481,30.3076616
bar,,59.9622196,30.4318874
bank,Сберкасса,59.9699966,30.4357097
cafe,,59.9600372,30.4257034
doctors,АндроМеда,59.9685342,30.3048313
doctors,Эстетик Клуб,59.9692661,30.3069078
cafe,Маэстро,59.9693603,30.3076975
bank,ВТБ24,59.9693044,30.307913
telephone,,59.9674662,30.3096059
cafe,Момо,59.9665664,30.3105015
waste_disposal,,59.6169123,30.0395465
cinema,,59.6181846,30.0393832
post_box,,59.6168606,30.042625
cafe,,59.6167917,30.0393899
atm,,59.9648304,30.3102902
waste_disposal,,59.8561002,30.4744563
pharmacy,,59.8583172,30.4769243
cafe,Жан-Жак,59.9606244,30.3027377
restaurant,Дивный сад,59.9618063,30.2995871
theatre,Эра,59.9608168,30.3032878
waste_disposal,,59.6240071,30.3919265
waste_disposal,,59.6225993,30.3891076
waste_disposal,,59.6269333,30.3906675
waste_basket,,59.6256087,30.3925041
bench,,59.6255983,30.3925055
atm,,59.8956388,30.4927364
bank,ВТБ24,59.9051164,30.4830962
atm,,59.8957421,30.49288
atm,,59.8957397,30.4929854
atm,,59.8957445,30.4927651
waste_disposal,,59.8449937,30.3621008
waste_disposal,,59.844545,30.3650845
dentist,Аркадия,59.8417848,30.4865444
restaurant,Конд,59.8479063,30.3831712
bank,Сбербанк,59.847569,30.381973
pharmacy,Фиалка,59.9611474,30.3146665
waste_disposal,,59.6243565,30.3891161
pharmacy,"МУП ""Аптека № 68""",59.6247677,30.3861331
dentist,,59.6250964,30.3899905
car_wash,Автомойка,59.8941229,30.4580885
waste_basket,,59.8982998,30.4722539
waste_basket,,59.8978318,30.4702753
pub,SПБ,59.8307556,30.385526
fast_food,Pizza Ollis,59.837942,30.3959065
post_box,,59.9602174,30.317555
atm,Альфа-Банк,59.8331916,30.414685
atm,ВТБ24,59.8326362,30.4153931
atm,Альфа-Банк,59.8306792,30.3778585
atm,Альфа-Банк,59.8299531,30.38312
atm,Альфа-Банк,59.896152,30.3570886
atm,Альфа-Банк,59.9992971,30.3598501
parking_entrance,,59.938176,30.3207032
doctors,ГрандМед,59.9280218,30.3203786
pharmacy,,59.9306945,30.4228055
fast_food,Крошка-картошка,59.9188827,30.3387042
fast_food,Аль-Шарк,59.9188424,30.3385111
bar,Проходимец,59.9317023,30.3457847
fast_food,Еда,59.8507631,30.3244806
police,Участковый пункт милиции,59.9623565,30.2897854
waste_disposal,,59.9305714,30.4275759
theatre,За чёрной речкой,59.9992052,30.2891141
pub,Beer House,60.0014125,30.2993372
cinema,Каро Фильм,60.0087723,30.2969179
parking_entrance,,60.0560138,30.3091898
library,Библиотека N4,59.8512738,30.2463231
police,35 о.м.,59.9948475,30.2841531
pharmacy,,59.8164688,29.9824687
library,Библиотека имени А. А. Прокофьева,59.8467866,30.3834821
bank,Сбербанк,59.8411857,30.3896505
cafe,Штолле,59.8456721,30.3786481
waste_disposal,,59.8722746,30.377274
waste_disposal,,59.8740159,30.3753274
bank,ВТБ 24,59.8291947,30.3859257
restaurant,Розарио,59.8308034,30.3853137
pub,Моране,59.8370297,30.3510826
waste_disposal,,59.6109354,30.1327377
fast_food,Макдоналдс,59.992194,30.2068709
pharmacy,,59.8696436,30.4118265
waste_disposal,,59.8359913,30.3973651
restaurant,Macarena,59.8566211,30.321765
bar,Кофейная Гамма,59.8671761,30.3199699
pharmacy,Фиалка,60.02028,30.243444
bank,Сбербанк,59.8477844,30.1856634
dentist,Стоматология,59.8474427,30.1863492
restaurant,Тёплые края,59.943263,30.261907
restaurant,Вместе,59.8514214,30.2576099
atm,Сбербанк,59.8961664,30.3571948
restaurant,Сеновал,59.9283399,30.3034252
police,МРЭО №5,59.9283326,30.2875259
cafe,Кофе Хауз,59.9595376,30.3171062
waste_disposal,,59.9598682,30.3127953
restaurant,Чили Пицца,59.9491824,30.3027659
restaurant,Solnce,59.9494887,30.3024869
cafe,Аль-Шарк,59.9267161,30.3577136
bank,СГБ,59.9276348,30.3498414
hospital,Аллергомед,59.9278398,30.3492165
restaurant,BeerBurger,59.9532349,30.2919889
dentist,St.Moritz,60.0012521,30.3654002
atm,Альфа-Банк,59.951754,30.2902685
bank,Санкт-Петербург,59.8505203,30.303052
pharmacy,Первая помощь,59.8480972,30.3108245
pharmacy,Петербургские аптеки,59.8478791,30.3112712
post_office,Отделение связи №196245,59.8472114,30.3124646
restaurant,Paulaner Brauhaus,59.8430315,30.3185931
bank,Райффайзен,59.8298062,30.3855255
cafe,ItSu,59.8306927,30.3852349
pharmacy,Невис,59.8332762,30.3916957
fast_food,Теремок,59.9676262,30.3090985
cafe,Ширван,59.8350531,30.4179709
restaurant,Евразия,59.846718,30.4067075
pharmacy,Социальная городская аптека,59.8719004,30.3783403
bank,Сбербанк,59.8756935,30.3740644
library,Детская библиотека имени В. Г. Короленко,59.8758227,30.3734207
atm,Citibank,59.8786226,30.3704166
bank,Сбербанк,59.8511152,30.2554366
bank,Абсолют,59.8514,30.2402665
fast_food,Subway,59.9526958,30.2915146
bench,,59.8121022,30.5674635
bench,,59.8116686,30.5663481
bench,,59.812334,30.5668411
bench,,59.8124377,30.566575
bench,,59.8115197,30.5667305
police,,59.8144694,30.5644621
bench,,59.8117138,30.5662282
bench,,59.8123887,30.5667062
bench,,59.811563,30.5666106
bench,,59.8121455,30.5673435
bench,,59.8117515,30.5661082
bench,,59.811859,30.565857
bench,,59.8120023,30.5677184
bench,,59.8122002,30.5672085
bench,,59.8116177,30.5664756
bench,,59.8122511,30.5670811
bench,,59.8118137,30.5659845
bench,,59.8120513,30.5675872
bench,,59.8119551,30.5678459
bench,,59.8122963,30.5669611
bench,,59.8115828,30.5688506
bench,,59.8113236,30.5684832
bench,,59.8116601,30.5686482
bench,,59.8114009,30.5682808
restaurant,Лилия,59.8099963,30.5692999
car_wash,Union,59.8511419,30.2340852
clinic,ЛенМед,59.8514558,30.2409538
cafe,,59.9586066,30.3122543
pub,Porter House,59.9585083,30.3112258
cafe,Рэро,59.9584247,30.3123642
vehicle_inspection,Буборг - Гостехосмотр,59.872882,30.338567
restaurant,Евразия,59.851657,30.335541
cafe,Япона Суши,59.8536327,30.3203841
car_wash,,59.847242,30.213653
waste_disposal,,59.85381,30.3804944
pharmacy,Озерки,60.0010244,30.2996355
pharmacy,ЛекОптТорг,59.999603,30.2939782
pharmacy,,59.8387274,30.3854088
cafe,Зимняя вишня,59.8386366,30.3850915
pharmacy,Фиалка,59.8358811,30.3802804
waste_disposal,,59.8376277,30.382791
restaurant,Чайхана,59.837811,30.3966955
library,Библиотека - Филиал №5,59.9423508,30.2628273
cafe,Подкова,59.811029,30.5696218
cafe,У Клюквы,59.8073027,30.5682284
dentist,Эверест,59.8098413,30.5719488
waste_basket,,59.9626004,30.3060731
waste_basket,,59.9626098,30.3060902
waste_basket,,59.9626287,30.3060444
waste_basket,,59.9626166,30.30603
waste_basket,,59.9627716,30.3060516
cafe,УсЛада,59.9633486,30.304715
waste_disposal,,59.9976661,30.2937321
waste_disposal,,60.0025131,30.2933145
bank,Сбербанк,59.9982783,30.2796308
pharmacy,Фармакор,59.9980851,30.2794806
restaurant,Токио-City,59.9995668,30.2927605
car_wash,,59.9541198,30.4583323
veterinary,Ветцентр,59.8525251,30.230325
cafe,Шеф кебаб,59.8965974,30.3573202
fast_food,Царь Пышка,59.8965759,30.3575348
bank,Сбербанк,60.0145631,30.0077784
restaurant,Евразия,59.9861519,30.3039291
cafe,Кофе Хауз,59.9863698,30.3035011
cafe,,59.9856989,30.3080331
bank,Балтинвестбанк,59.9869565,30.3054303
cafe,,59.9848923,30.3086751
bar,Frank,59.9263416,30.3422793
bar,,59.8146799,29.9814977
bank,Уралсиб,59.9998361,30.2963622
pharmacy,Мирта,59.9998523,30.29808
bar,Райский сад,59.9209721,30.353852
bar,Верста,59.9284257,30.3589797
waste_disposal,,59.8354972,30.3912327
restaurant,Oh! Mumbai,59.9320695,30.3123896
cafe,Сыто-Пьяно,59.9307234,30.3182827
restaurant,Шаляпин,59.9470463,30.3832037
doctors,Городская поликлиника №38 и круглосуточный травмапункт,59.9466768,30.3825196
pharmacy,Фармакор,59.9466463,30.3824125
school,Школа №18,59.9462553,30.3833364
bank,,59.7508556,30.5771199
restaurant,Две палочки,60.0124873,30.401801
restaurant,Tres Amigos,59.9273498,30.3428897
fast_food,Теремок,59.9610822,30.2909811
pharmacy,Первая помощь,59.9605341,30.290194
cafe,Чайная ложка,59.960764,30.2905864
dentist,Чкаловская клиника,59.961083,30.2900259
library,,59.9993754,30.2795281
waste_disposal,,59.7263886,30.4157953
pharmacy,Первая помощь,59.72632,30.4175758
waste_disposal,,59.726389,30.4149364
fast_food,Сушишоп,59.7221865,30.4271574
restaurant,Асахи,59.8572542,30.3217134
pharmacy,Аптека,59.8356256,30.3815663
bank,Траст,59.8292931,30.3858292
pub,Контакт Бар,60.0018199,30.2991674
bank,Сбербанк,60.0016598,30.2990852
restaurant,Евразия,59.739106,30.6223664
pharmacy,Университетская аптека,59.7405154,30.5839176
pub,Пивная Кружка,59.7329433,30.6055136
restaurant,Пицца Уно Моменто,59.7330893,30.6054948
bank,ИнтрастБанк,59.9713289,30.310241
restaurant,Васаби,59.9698005,30.3145414
bank,Сбербанк,59.946469,30.2716741
atm,Санкт-Петербург,60.0502085,30.3126
waste_disposal,,59.8988487,30.4286602
parking,,60.0761123,30.2516327
waste_disposal,,59.6222495,30.1840476
restaurant,Максимильян,60.0249888,30.6305399
waste_disposal,,59.9159845,30.3347759
place_of_worship,Покровская церковь,59.6662864,30.2564019
bank,МДМ банк,59.9710109,30.3071479
restaurant,Атлантис,60.1444032,29.9295301
restaurant,Черемша,60.1350496,29.9410453
pharmacy,Балтик-Эндомед,59.9840612,30.4317162
pharmacy,,59.9855419,30.4257328
pharmacy,,59.9846913,30.4248178
cafe,Столовая,59.9818149,30.4303022
waste_disposal,,59.9813744,30.4335899
fast_food,,59.9807765,30.435879
fuel,Газпром нефть,59.9094486,30.4446928
restaurant,Евразия,59.8447927,30.3225332
pharmacy,Невис,59.704085,30.4074383
post_office,,59.703897,30.4183523
restaurant,Bagatelle,59.9411869,30.3241373
waste_disposal,,59.8661603,30.3830667
waste_disposal,,59.8629931,30.3862344
pharmacy,Фармакор,59.9520911,30.2965478
pharmacy,Невис,59.9543789,30.2939493
waste_disposal,,59.9537671,30.2944721
bank,Сбербанк,59.749683,30.5872214
waste_disposal,,59.9947751,29.7614885
bank,,59.8297492,30.4040908
bank,Сбербанк,59.8498083,30.4036204
bank,Открытие,59.8338931,30.4190236
post_box,,59.8351592,30.4232343
restaurant,Тан Жен,59.8337915,30.4199259
bank,,59.8327346,30.3934634
bank,,59.8332511,30.3894592
library,,59.7050001,30.406947
bar,,59.7045399,30.4070931
cafe,,59.708643,30.4058147
fast_food,,59.7089511,30.4076386
police,,59.7062797,30.4059293
pharmacy,,59.7087094,30.4078841
arts_centre,,59.7065666,30.4057148
waste_disposal,,59.925359,30.3354781
waste_disposal,,60.143804,30.230786
waste_disposal,,60.1432109,30.2290941
waste_disposal,,59.7051278,30.4039594
pharmacy,Фармадом,59.924866,30.3387978
cafe,Синема,59.8311924,30.422707
theatre,Филармония джазовой музыки,59.9240608,30.3367778
restaurant,Тройка,59.9244298,30.337208
bus_station,Красное село,59.7307931,30.1027789
toilets,,59.826325,30.1857593
waste_disposal,,59.8264497,30.1854745
cafe,,59.8262929,30.1857387
waste_disposal,,60.055003,30.3201567
waste_disposal,,60.0537485,30.3210925
waste_disposal,,60.0524081,30.3183745
waste_disposal,,60.0558241,30.3165087
waste_disposal,,60.0528283,30.3211344
school,Школа №207,59.9330886,30.3580983
school,Гимназия №209,59.9342751,30.3591926
school,Школа №207,59.9332365,30.3561825
waste_disposal,,60.0522731,30.3173761
restaurant,Две палочки,59.8514378,30.2663536
restaurant,Евразия,59.8375913,30.229496
waste_disposal,,59.8988899,30.4240148
veterinary,,59.9011275,30.4271683
waste_disposal,,59.9685435,30.4035748
cafe,Омега,59.9711273,30.306442
bank,ПромСвязьБанк,60.0504988,30.3439722
restaurant,Харбин,60.050268,30.345008
restaurant,Аджика,60.0506176,30.3433576
bank,Сбербанк,60.0530995,30.3361961
pharmacy,Первая помощь,60.0498084,30.3474803
atm,ПромСвязьБанк,60.0513002,30.3373103
pharmacy,"""Первая помощь""",60.0553283,30.3250157
atm,Сбербанк,59.9850633,30.2442815
police,Отдел полиции №76 Центрального района,59.9311911,30.3755603
fire_station,Пожарная часть №7,59.9306519,30.3749247
atm,ПромСвязьБанк,60.0504855,30.3440427
cafe,,60.0273751,30.2098382
waste_disposal,,60.050044,30.3425311
fast_food,KFC,60.0521019,30.3328027
waste_disposal,,60.0496066,30.3447042
restaurant,Чердак,59.9579485,30.3342386
pub,Molly,60.0067068,30.2642348
restaurant,Две палочки,60.0073514,30.2650035
fast_food,Теремок,60.0521976,30.3326768
atm,Сбербанк,59.754017,30.5627057
fast_food,АльШарк,60.0520388,30.3326727
cafe,Пироговый Дворик,59.8273049,30.3983335
bank,УралСиб,59.8443498,30.3901175
waste_disposal,,59.9326726,30.3575741
waste_disposal,,59.9323103,30.3555431
cafe,Кофе Хауз,59.9337966,30.3549852
restaurant,Пицца Хат,59.9320743,30.3547191
pharmacy,Радуга,59.9320153,30.3551572
cafe,Сладкоежка,59.931146,30.3556375
bank,Юниаструм Банк,59.9533587,30.409477
pharmacy,Петербургские Аптеки,59.8688662,30.2605482
atm,Сбербанк,59.8682226,30.2597055
bank,Сбербанк,59.8683116,30.2609396
cinema,Кинополис,59.8799009,30.2656375
pharmacy,Здоровые люди,59.8907068,30.2699191
cafe,Герард Миллер,59.8749626,29.8274404
cafe,Сластена,59.8746247,29.8302194
cafe,Буше,59.9307918,30.3548127
bank,Сбербанк,59.9360508,30.2702469
cinema,Кронверк Синема,60.0525952,30.331728
swimming_pool,Бассейн ИЗ,59.7332252,30.5794025
courthouse,Мировые судьи Колпинского района,59.7335301,30.5811747
public_building,"Садово-Парковое предприятие ""Колпинское""",59.7479697,30.6120452
police,ОВИР Колпинского Района,59.747912,30.6123898
place_of_worship,Нетрадиционное религиозное объединение Брахма Кумарис,60.0319521,30.3237619
waste_disposal,,59.7447806,30.5836485
waste_disposal,,59.8443067,30.3884964
waste_disposal,,59.8596003,30.1595757
waste_disposal,,59.8573353,30.2131832
fast_food,Макдоналдс,60.09138,30.3797354
toilets,,59.970793,30.3472245
restaurant,Pizza Italia,60.3006675,29.80314
cafe,,60.3001103,29.8039157
fast_food,Мегабургер,59.7176907,30.4064708
clock,,60.0072307,30.3707933
restaurant,Старый Пловдив,59.832226,30.168829
parking,,59.9774014,30.2940218
waste_disposal,,59.9774384,30.2934143
pharmacy,Озерки,59.9053651,30.4828592
doctors,МедКомиссия,60.0564693,30.336474
waste_disposal,,59.8570313,30.2146236
waste_disposal,,59.8579938,30.2165857
waste_disposal,,59.8587388,30.2141992
pharmacy,,59.9840166,30.4004968
pharmacy,Лекоптторг,59.8787157,30.3223437
pharmacy,Здоровые люди,59.8784291,30.3190392
ferry_terminal,,59.9460633,31.0299015
waste_disposal,,59.8598052,30.3571123
cafe,Кинь грусть,59.9457248,31.034103
pharmacy,,59.8757883,29.8999463
school,,59.8748216,29.8963842
pharmacy,,59.8815639,29.8965291
post_box,,59.8756542,29.8998844
pharmacy,,59.8751003,29.8997015
pharmacy,Радуга,59.8772138,29.9174293
pharmacy,Петербургские аптеки,59.8776129,29.9187541
bank,Росбанк,59.9873037,30.300891
pharmacy,Фармакор,59.9906116,30.3056454
bank,Балтийский банк,59.9865047,30.2978455
school,Детская школа искусств имени М.Л. Ростроповича,59.9141197,30.3081662
theatre,"Детский театр ""На Неве""",59.9141025,30.3094675
waste_disposal,,59.9660247,30.3039732
bank,ВТБ24,59.8530729,30.2243532
bank,Петровский,59.8532616,30.2245665
bank,Балтийский,59.8531323,30.2244493
pharmacy,,59.9443191,30.2869333
pharmacy,Радуга,59.9420028,31.0411122
pharmacy,Невис,59.9436563,31.0348738
cafe,Штолле,59.946049,30.2850281
pub,Muscat,59.9452148,30.2884008
bar,deep,59.9449146,30.2838395
cafe,Кофе и Вафли,59.9454062,30.285691
parking,,59.9434227,31.0340998
kindergarten,,59.8481047,30.3271394
waste_disposal,,60.0151464,30.2888153
fast_food,,59.9455131,30.2856701
restaurant,Фиолет,59.9291714,30.3354573
atm,ВТБ24,59.8960086,30.3576493
atm,Балтийский Банк,59.8876989,30.3647089
fast_food,Столовая,59.8880238,30.3650936
bank,Первый Республиканский Банк,59.949193,30.3033572
bench,,59.9249533,30.3367426
waste_disposal,,60.0257078,30.6294203
fast_food,Pizza Roni,59.8450434,30.3089363
bank,Сбербанк,60.0242263,30.6317899
pharmacy,,60.0249342,30.6320953
waste_disposal,,59.9614694,30.2943956
cafe,Островок счастья,59.9417414,30.4345035
taxi,,60.2494543,29.5740528
restaurant,Евразия,59.9140484,30.3503339
bureau_de_change,Лиговский,59.9288941,30.3577262
bank,Сбербанк,59.9389492,30.3556432
bank,Сбербанк,60.2549064,29.6061311
taxi,,60.249011,29.5750398
kindergarten,Прогимназия «Радуга» №624,59.9131942,30.3047787
atm,,60.0150215,30.6481666
waste_disposal,,60.2559329,29.6072885
fountain,,60.2565845,29.6033745
bank,Альфа-Банк,59.9243001,30.3847916
language_school,Lingua Consult,59.920039,30.3613644
pharmacy,,59.854238,30.2088564
parking,,59.92844,30.360236
post_box,,59.7757234,30.1463124
atm,Сбербанк,59.9420386,30.4687038
pharmacy,,60.0236575,30.6411102
atm,,60.0249922,30.6320015
restaurant,Craft Brew Cafe,59.9353084,30.3115138
bar,Стирка 40°,59.9306327,30.3179428
toilets,,59.9462379,31.0311289
library,Библиотека,60.256013,29.6035313
fast_food,Столовая,59.9278566,30.3114546
bank,ВТБ 24,59.5731784,30.1254508
library,Филиал №2,59.5797923,30.1214551
post_office,Гатчина,59.571583,30.124918
school,Гимназия им. К.Д. Ушинского,59.5679785,30.118428
swimming_pool,,59.5789767,30.11914
post_office,Гатчина-8,59.5790339,30.1209449
library,Детская библиотека,59.5706383,30.1255396
pharmacy,,59.7420142,30.6101727
fast_food,Кинза,59.9124718,30.3493434
bank,ВТБ24,59.9184838,30.3531685
cafe,Дружба,59.9229164,30.3560534
theatre,Комедианты,59.9262427,30.3585647
fast_food,Cofix,59.9309851,30.3597095
fuel,ПТК,59.5811378,30.1382662
bank,ЛокоБанк,59.921504,30.3550208
bureau_de_change,Грузинский лаваш ,59.914667,30.3509473
cafe,Бистро,59.9114493,30.3586149
theatre,Дворец Культуры имени Ленсовета,59.9669767,30.3100769
marketplace,"Рынок ""Конкурент""",59.9933794,30.4092691
library,Библиотека имени Зощенко,60.0884427,29.9557741
post_office,Отделение связи №197706,60.0905747,29.9535427
bank,Сбербанк,59.9138593,30.3502371
veterinary,Ветеринарная станция,60.081778,29.9540723
police,РУВД Курортного района,60.0965415,29.9733313
hospital,Туберкулезный диспансер,60.1021612,29.9712655
townhall,Администрация Курортного района,60.0935553,29.9724621
parking,,60.0929644,29.9581095
parking,,60.1036823,29.9766361
bench,,60.0897052,29.9414779
nightclub,Эфир,59.9612391,30.2982468
bank,Сбербанк,59.9634648,30.2877592
cafe,Брынза,59.9626272,30.3007782
waste_disposal,,59.9637454,30.2921686
restaurant,Арена,59.9674213,30.2740207
fast_food,Нямбург,59.9618389,30.292541
cafe,Атмосфера,59.9593686,30.2884958
bank,Сбербанк,59.5725704,30.1245115
bank,Сбербанк,59.5801894,30.1234797
bank,Сбербанк,59.5594173,30.1271707
pharmacy,Аптека №125,59.5797931,30.1246807
toilets,,60.1452436,30.4567733
pharmacy,Невис,59.9899733,30.2551238
waste_disposal,,60.0558774,30.4791127
waste_disposal,,59.9734541,30.3222598
waste_disposal,,59.9100092,30.4606179
waste_disposal,,59.9152856,30.4641691
cafe,Кофеварим,59.9159292,30.3142455
toilets,,59.9773913,30.3211001
atm,,59.9729819,30.3243522
parking,,59.9715565,30.3212892
waste_disposal,,59.9976075,30.291903
sauna,Сауна на Боровой,59.9170382,30.3452251
waste_disposal,,60.24534,29.626263
atm,,59.91254,30.3195805
pharmacy,Мелодия здоровья,59.9136873,30.3413056
restaurant,Евразия,59.9386515,30.4774136
waste_disposal,,59.9146292,30.344815
fountain,,59.9247933,30.3370038
waste_disposal,,59.9121361,30.2961725
restaurant,Васаби/Розарио,59.9132615,30.2978104
cafe,Бородино,59.9125679,30.297839
fast_food,Пицца Олис,59.9537989,30.2172436
toilets,,59.9162454,29.7666865
toilets,,59.9178255,29.7701199
atm,Сбербанк,59.9019798,29.7702613
atm,,59.9103071,29.769704
library,Центральная библиотека Ломоносовского муниципального района им. Н. А. Рубакина,59.9056191,29.7711468
bus_station,Ломоносов,59.9182216,29.767374
fuel,,59.8727867,29.8099588
post_box,,59.8475794,30.9319482
clinic,Медсанчасть №157,59.8500561,30.3169794
pharmacy,Удачная,60.016819,30.3217185
fast_food,Макдоналдс,60.0172403,30.3202112
waste_disposal,,60.0119405,30.3269674
waste_disposal,,60.0167744,30.332705
waste_disposal,,60.016747,30.3262838
waste_disposal,,60.0157881,30.3240788
waste_disposal,,60.0142584,30.3243358
waste_disposal,,60.0146941,30.3318684
atm,,59.8071341,30.5801804
post_box,,59.8084692,30.5759288
bank,Петровский банк,59.8094404,30.573842
cafe,,59.814919,30.5669442
pharmacy,Невис,59.8090994,30.573475
pharmacy,Здоровые люди,59.9119701,30.3480417
waste_disposal,,59.61568,30.1663543
bench,,59.9722649,30.2317847
bench,,59.9719386,30.2314498
bench,,59.972234,30.2332208
bench,,59.9717843,30.2339081
bench,,59.9713081,30.2355204
atm,,59.9165579,29.771463
atm,,59.9484832,30.3813062
kindergarten,,59.6141078,30.1681558
bank,Россия,59.9494395,30.3900337
pharmacy,,59.9437459,30.2270713
library,,59.7477368,30.6082428
school,Художественная школа,59.7457452,30.6020626
post_office,,59.7441957,30.5828341
waste_disposal,,59.9168054,30.3096577
kindergarten,Детский сад №131,59.9162785,30.3146848
waste_disposal,,59.9148254,30.2986876
waste_disposal,,60.0204511,30.3287342
waste_disposal,,60.0181734,30.3285795
pharmacy,Фармакор,59.9123017,30.297367
fast_food,,59.9138128,30.2967985
cafe,Time,59.9127736,30.2973491
kindergarten,Детский сад №116,59.9127663,30.2970935
waste_disposal,,59.9133406,30.2968697
school,Детская школа искусств №19,59.9137834,30.2958354
fast_food,Питание 1,59.9137684,30.2953436
cafe,Питерские ночи,59.9133703,30.2927492
cinema,Каро-фильм,59.8585138,30.2485212
restaurant,Япоша,59.9373816,30.323231
library,Библиотека-филиал №3,60.0154542,30.3232025
vending_machine,Связной,60.0168292,30.3218234
waste_disposal,,59.9134833,30.3166932
bank,Ситибанк,59.8606041,30.3203521
waste_disposal,,59.9231518,30.4528156
pharmacy,Радуга,59.909426,30.2931797
cafe,Пышки пирожки,59.9122166,30.2973651
dentist,Дентист,59.9096513,30.2960941
college,Полицейский юридический колледж «ИнтерПолисКолледж»,59.9111599,30.3099512
restaurant,Монтана,59.9121862,30.3070015
kindergarten,Детский сад №112,59.9157879,30.3139142
cafe,Id Bar,59.9145186,30.3011895
cafe,Китайская кухня,59.9115145,30.3091381
cafe,Кофеварка,60.01661,30.3217427
waste_disposal,,59.9044373,29.7794398
waste_disposal,,59.9091,29.7741597
waste_disposal,,59.908982,29.7769008
waste_disposal,,59.9035627,29.7748189
waste_disposal,,59.9032113,29.7723333
waste_disposal,,59.91154,29.7743114
waste_disposal,,59.8971049,29.7701058
waste_disposal,,59.9092304,29.7705311
waste_disposal,,59.8954457,29.7685677
waste_disposal,,59.9160627,29.7698149
waste_disposal,,59.8981496,29.7753547
waste_disposal,,59.9053837,29.7807294
waste_disposal,,59.9073705,29.7724061
waste_disposal,,59.9050567,29.7734373
hospital,Больница №32,59.9214908,30.3279668
waste_disposal,,59.9120506,30.316096
waste_disposal,,59.9118901,30.3167588
clock,,60.0118642,30.3276014
pub,Templet bar,59.849381,30.4041182
cafe,Суши бар,59.8626847,30.390037
waste_disposal,,59.9132338,30.3103881
waste_disposal,,59.9128277,30.3036874
waste_disposal,,59.9157482,29.773161
waste_disposal,,60.0136373,30.3253124
kindergarten,Детский сад №115,59.9141293,30.302908
kindergarten,Детский сад №93,60.0151642,30.328489
waste_disposal,,60.0148698,30.3274252
kindergarten,Детский сад №115,60.015096,30.3255632
waste_disposal,,60.0158925,30.336714
parking_entrance,,59.987446,30.2282359
parking_entrance,,59.9888809,30.2276978
waste_disposal,,59.914942,30.3036163
parking_entrance,,59.9882782,30.2253287
cafe,Ozzi,59.9145054,30.2998813
dentist,Астра,59.9146051,30.3044992
doctors,OSTEO,59.9150029,30.2996721
waste_disposal,,60.0146897,30.3353598
nightclub,Космонавт,59.9139778,30.3239248
pharmacy,Эдифарм №17,60.0093639,30.2612351
pharmacy,Фармакор,60.0127541,30.2754459
bank,Сбербанк,60.0134775,30.2757576
pharmacy,,60.0149574,30.2795179
bench,,60.0158661,30.3216884
bench,,60.0158089,30.321521
bench,,60.0158223,30.3214298
bench,,60.0158438,30.3213708
bench,,60.0158786,30.3213279
bench,,60.0159161,30.3213172
waste_disposal,,59.8518059,30.3799799
waste_disposal,,59.8524646,30.3739679
waste_disposal,,59.8543336,30.3737713
waste_disposal,,59.9540352,30.2227975
waste_disposal,,59.9551282,30.2246677
bank,Красносельское отделение № 1892/0661,59.8326052,30.1741628
pharmacy,Фармакор,59.8247749,30.178888
pharmacy,Горные вершины,59.8293288,30.178459
post_office,Отделение связи №198205,59.8301133,30.1783194
fast_food,Папирус,59.8514874,30.270921
pharmacy,Петербургские аптеки,59.8514896,30.2740661
waste_disposal,,59.8528928,30.2784974
waste_disposal,,59.8524936,30.2783241
pharmacy,Озерки,59.8316501,30.3891991
restaurant,Васаби,59.8307294,30.3850187
cafe,Итальянская пицца,59.7238463,30.427464
cafe,На Широкой,59.7230906,30.4266143
cafe,Флора,59.722785,30.4262924
bank,ВТБ24,59.7203209,30.4162073
waste_disposal,,59.8526638,30.2709441
waste_disposal,,59.853437,30.2758794
bank,Сбербанк,59.8513433,30.2696602
bank,ЮниКредит Банк,59.8508082,30.2693372
pharmacy,Экономь!,59.8506971,30.2692922
bank,Петровский банк,59.717854,30.4060592
waste_disposal,,60.0186733,30.3227254
pharmacy,Городская социальная аптека № 162,60.0203177,30.321585
cafe,Талисман,59.7175632,30.4098558
cafe,Мечта,59.7217815,30.4151961
bar,БАР.ИН,59.915724,30.3184336
cafe,Наша кухня,59.9146047,30.3211272
restaurant,Korean BBQ гриль,59.9077178,30.274382
pharmacy,Фармакор,59.9134045,30.2768431
waste_basket,,59.9118301,30.2686086
pharmacy,Невис,59.8293136,30.1773739
waste_disposal,,59.8509117,30.3754193
waste_disposal,,60.0790641,30.2523079
parking,,59.7415574,30.6118752
bench,,59.6938984,30.1781924
bench,,59.6939163,30.1782023
toilets,,59.6943248,30.1784179
restaurant,,59.6939209,30.1783318
bench,,59.6938584,30.1781698
bench,,59.693882,30.1781839
pharmacy,,60.1985687,29.7050942
post_office,,60.2002686,29.7068016
waste_disposal,,60.1991445,29.7069291
waste_disposal,,60.1994801,29.7089105
waste_disposal,,60.1975022,29.7092916
parking,,60.197667,29.7097654
waste_disposal,,60.1976524,29.7125271
police,81 отдел полиции,60.1939113,29.7043493
pharmacy,,60.1994611,29.7052001
pharmacy,,60.2014906,29.7092033
hospital,,60.1988993,29.6998907
waste_disposal,,60.02343,30.3147947
waste_disposal,,60.0221714,30.3139165
waste_disposal,,60.01907,30.3192877
toilets,,59.9584401,30.3544238
cafe,Ржавая подкова,59.9157637,30.3010559
cafe,Кофейная гамма,59.9348346,30.3292092
restaurant,Евразия,59.9298087,30.348068
cafe,Север-Метрополь,59.9334113,30.3603768
restaurant,Евразия,59.935882,30.3629215
restaurant,Mama Roma,59.9250451,30.3392504
restaurant,Евразия,59.9233834,30.3556889
restaurant,Плов без слов,59.9411425,30.3488289
restaurant,Евразия,59.9337293,30.3262493
bank,Сбербанк,60.2009197,29.7066027
library,Детская библиотека,60.194307,29.7049018
waste_disposal,,60.19546,29.7043143
parking,,60.1926549,29.7086702
public_building,Администрация,60.195344,29.7016321
school,"дюсш ""Снайпер""",60.195472,29.7017286
waste_disposal,,59.8354331,30.348978
library,Библиотека,60.2000693,29.7072336
kindergarten,Детский сад №127,59.9146684,30.3117767
waste_disposal,,59.9135715,30.3012586
cafe,Север-Метрополь,59.9131702,30.2978126
bank,Сбербанк,59.9433436,30.262259
atm,,59.917974,30.3486559
atm,,59.9178867,30.3487304
atm,,59.9179831,30.3486006
school,Детская школа искусств имени Д.С. Бортнянского,59.9091436,30.3173656
waste_disposal,,59.9112777,30.3094039
waste_disposal,,60.0046093,30.3249202
waste_disposal,,60.017146,30.3322474
restaurant,Евразия,59.929596,30.36259
cafe,Штолле,59.9370815,30.3364926
restaurant,Евразия,59.9462985,30.3589512
bank,,60.0240996,30.3197679
dentist,Стоматология,60.0175904,30.3316296
restaurant,Vox,59.9427249,30.341818
atm,Сбербанк,59.9215557,30.474786
atm,,60.0158666,30.3175082
waste_disposal,,60.0263315,30.3159329
waste_disposal,,60.0092349,30.3239354
bank,Сбербанк,60.0159205,30.3174844
waste_disposal,,60.0175078,30.3160104
waste_disposal,,60.01447,30.3193953
waste_disposal,,60.0198724,30.3157779
waste_disposal,,60.0178577,30.319633
waste_disposal,,60.014774,30.3165729
school,Гимназия № 92 (младшие классы),60.014308,30.3317226
pub,Пиворама,60.0085188,30.2970037
waste_disposal,,60.0120856,30.2913111
pharmacy,Экономь!,60.0072292,30.295232
fast_food,Плюшкин дом,59.9625718,30.3143989
restaurant,Гин-но таки,59.9450075,30.3588373
restaurant,Сорбет,59.718081,30.4106594
cafe,Тёщины блины,59.7182868,30.4099202
cafe,Десятка,59.9554866,30.2965645
bank,Росгосстрах Банк,60.007303,30.2952913
pharmacy,Радуга,60.0050932,30.298349
restaurant,Евразия,59.7498394,30.5827696
restaurant,Евразия,59.736843,30.571512
pharmacy,Ньюфарм,59.9189274,30.4955469
pharmacy,Аптекарь,59.9186123,30.4958512
restaurant,Евразия,59.9074743,30.3073887
restaurant,Евразия,60.1035366,29.9760377
pharmacy,Доктор,60.0173562,30.314296
waste_disposal,,60.0132123,30.3006168
restaurant,Евразия,59.9321506,30.2912431
restaurant,Евразия,59.9236756,30.2923923
restaurant,Евразия,59.9444359,30.3038278
waste_basket,,59.9026246,30.2719916
restaurant,Евразия,59.9658153,30.3381686
restaurant,Евразия,59.9850766,30.3345889
waste_disposal,,59.9125731,30.2817321
waste_disposal,,59.91325,30.279195
waste_disposal,,59.9978697,30.2978887
cinema,,59.6369305,30.7600494
cafe,Сафари,59.8384721,30.2524265
restaurant,Евразия,60.0503889,30.3703286
restaurant,Евразия,60.0028052,30.3283422
restaurant,Евразия,60.0484605,30.3306581
restaurant,Евразия,60.0111877,30.3987811
restaurant,Евразия,60.0393646,30.403157
restaurant,Евразия,60.0367964,30.3955048
restaurant,Евразия,60.0258325,30.4125254
restaurant,Евразия,60.0417089,30.3851612
library,Ленинградская областная детская библиотека,60.0044777,30.3561355
library,Библиотека № 1 ЦБС Выборгского района,60.0048054,30.3557132
clock,,60.0105854,30.3461999
cafe,Лавка Хлебосолов,59.9269326,30.3063025
toilets,,60.0166255,30.3165415
cafe,Штолле,59.9403028,30.3603115
bank,Санкт-Петербург,59.7509473,30.576225
bank,Сбербанк,59.5576069,30.8480435
restaurant,Il Patio,59.9246764,30.3829819
theatre,Камерный театр Малыщицкого,59.9401238,30.3607885
vending_machine,,60.0167108,30.3154089
restaurant,Плюшкин,60.004856,30.2629889
pharmacy,Радуга,59.8645678,30.4455663
library,Дорожная научно-техническая библиотека ОктЖД,59.9082839,30.3109238
bank,Альфа-Банк,59.9932891,29.763526
