id,title,time,lat,lng,decreepart
11624017,В Красносельском районе гражданин привлечен к ответственности за нарушение правил обращения с оружием,2017-11-20 13:07:00,59.836513,30.133829,ст.20.8 (Нарушение Правил Хранения Оружия и Патронов к Нему); Кодекс Об Административных Правонарушениях; Россия
11620224,"Полиция разыскивает злоумышленника, ограбившего пожилую женщину в Кронштадте",2017-11-20 08:35:00,59.998492,29.759626,ч.2 ст.161 (Грабеж); Уголовный Кодекс; Россия
11617626,В Ленобласти задержан подозреваемый в хищении автомобиля,2017-11-19 10:48:00,60.07623830000001,30.121383,ч.2 ст.158 (Кража); Уголовный Кодекс; Россия
11617623,В Петербурге задержан автоугонщик,2017-11-19 10:45:00,59.861774,30.174635,ч.1 ст.166 (Неправомерное Завладение Автомобилем); Уголовный Кодекс; Россия
11606722,В Санкт-Петербурге задержаны подозреваемые в хищении изразцовой печи XIX века,2017-11-17 11:23:00,59.972558,30.304503,"ч.2 ст.164 (Хищение Предметов, Имеющих Особую Ценность); Уголовный Кодекс; Россия"
11604535,В Красносельском районе Петербурга по «горячим» следам раскрыто разбойное нападение на случайного прохожего,2017-11-17 08:27:00,59.85937299999999,30.211193,ч.3 ст.162 (Разбой); Уголовный Кодекс; Россия
11594536,В Ленинградской области по «горячим» следам задержан подозреваемый в разбойном нападении на случайного прохожего,2017-11-16 08:46:00,60.07623830000001,30.121383,ч.2 ст.162 (Разбой); Уголовный Кодекс; Россия
11568968,В Петербурге задержаны подозреваемые в похищении местной жительницы,2017-11-13 13:02:00,59.717593,30.4060042,ч.2 ст.126 (Похищение Человека); Уголовный Кодекс; Россия
11565028,В Петроградском районе Петербурга раскрыто разбойное нападение на мужчину,2017-11-13 09:07:00,59.959253,30.315649,ч.2 ст.162 (Разбой); Уголовный Кодекс; Россия
11565011,Полиция расследует ограбление граждан в Красносельском и Адмиралтейском районах Петербурга,2017-11-13 09:06:00,59.8524445,30.140841,ст.161 (Грабеж); Уголовный Кодекс; Россия
11564554,Полиция расследует разбойное нападение на случайного прохожего в Московском районе Петербурга,2017-11-13 08:16:00,59.90328189999999,30.3274512,ч.2 ст.162 (Разбой); Уголовный Кодекс; Россия
11551342,Полиция Приморского района расследует кражу у пожилой петербурженки,2017-11-10 12:22:00,59.997294,30.314807,ч.3 ст.158 (Кража); Уголовный Кодекс; Россия
11548187,"В Петербурге задержаны трое граждан, подозреваемых в хищении малолитражных грузовых автомобилей на территории города",2017-11-10 08:37:00,60.01436,30.318753,ч.2 ст.158 (Кража); Уголовный Кодекс; Россия
11538524,В Санкт-Петербурге полиция изъяла из незаконного оборота 20 килограммов насвая,2017-11-09 11:30:00,59.9284874,30.3278806,ст.14.53 (Несоблюдение Ограничений и Нарушений Запретов в Сфере Торговли Табачной Продукцией); Кодекс Об Административных Правонарушениях; Россия
11537259,"В Ленинградкой области полицейские задержали мужчину, подозреваемого в убийстве бывшей жены",2017-11-09 10:10:00,60.07623830000001,30.121383,ч.1 ст.105 (Убийство); Уголовный Кодекс; Россия
11530695,В Санкт-Петербурге раскрыта серия мошенничеств с недвижимостью,2017-11-08 15:31:00,59.917577,30.487477,ч.4 ст.159 (Мошенничество); Уголовный Кодекс; Россия
11525326,В Московском районе задержан подозреваемый в краже икры из торгового центра,2017-11-08 09:33:00,59.7886018,30.3210879,ч.1 ст.158 (Кража); Уголовный Кодекс; Россия
11525076,С поличным оперативники уголовного розыска задержали подозреваемого в карманной краже,2017-11-08 09:17:00,59.8524303,30.2441888,ч.2 ст.158 (Кража); Уголовный Кодекс; Россия
11514852,Полицейские провели миграционный рейд в общежитии на севере Петербурга,2017-11-07 09:36:00,59.98155819999999,30.4072258,ч.3 ст.19.27 (Представление Ложных Сведений При Осуществлении Миграционного Учета); Кодекс Об Административных Правонарушениях; Россия
11514637,В Кировском районе Санкт-Петерубрга устанавливаются обстоятельства получения травм мужчиной,2017-11-07 09:21:00,59.85492300000001,30.261904,ч.2 ст.111 (Умышленное Причинение Тяжкого Вреда Здоровью); Уголовный Кодекс; Россия
11508797,В Невском районе «по горячим следам» задержан подозреваемый в грабеже,2017-11-05 10:10:00,59.84022839999999,30.4959368,ч.2 ст.161 (Грабеж); Уголовный Кодекс; Россия
11496348,За минувшие сутки в Петербурге задержаны подозреваемые в трех карманных кражах,2017-11-03 08:25:00,59.8533509,30.2200454,ч.2 ст.158 (Кража); Уголовный Кодекс; Россия
11496321,Полиция Калининского района Петербурга расследует ограбление автовладельца,2017-11-03 08:16:00,59.99501799999999,30.360386,ч.2 ст.161 (Грабеж); Уголовный Кодекс; Россия
11475988,В Приморском районе Петербурга раскрыт уличный разбой,2017-11-01 08:16:00,59.8807905,30.458388,ч.2 ст.162 (Разбой); Уголовный Кодекс; Россия
11456233,Во Фрунзенском районе Петерубрга раскрыт уличный грабеж,2017-10-31 09:25:00,59.9083534,30.3420892,ч.2 ст.161 (Грабеж); Уголовный Кодекс; Россия
11466212,В Красносельском районе Петербурга полиция расследует ограбление пожилого мужчины,2017-10-31 09:23:00,59.84840990000001,30.206329,ч.2 ст.161 (Грабеж); Уголовный Кодекс; Россия
11465744,В Петербурге полицейские задержали подозреваемого в карманной краже,2017-10-31 08:34:00,60.01394439999999,30.3987119,ч.2 ст.158 (Кража); Уголовный Кодекс; Россия
11455431,Оперативники уголовного розыска раскрыли квартирную кражу в Московском районе,2017-10-30 09:24:00,60.07623830000001,30.121383,"ч.3 ст.158 (Кража, Совершенная с Незаконным Проникновением в Жилище); Уголовный Кодекс; Россия"
11455369,Полиция расследует разбой в салоне сотовой связи в Красносельском районе Петербурга,2017-10-30 09:17:00,59.84765400000001,30.068018,ч.2 ст.162 (Разбой); Уголовный Кодекс; Россия
11452410,В Петербурге раскрыт грабеж в отношении прохожего,2017-10-29 10:43:00,59.8571974,30.3820193,ч.2 ст.161 (Грабеж); Уголовный Кодекс; Россия
11442943,В Адмиралтейском районе Петербурга полицейские пресекли торговлю контрафактными спортивными товарами,2017-10-27 12:31:00,59.9245421,30.3181831,"ч.2 ст.14.10 (Реализация Товара, Содержащего Незаконное Воспроизведение Чужого Товарного Знака); Кодекс Об Административных Правонарушениях; Россия"
11439833,Полицейские раскрыли июльское ограбление подростка в Красногвардейском районе,2017-10-27 09:29:00,59.9342802,30.3350986,ч.2 ст.161 (Грабеж); Уголовный Кодекс; Россия
11433550,Полицейские Адмиралтейского района задержали автоугонщика,2017-10-26 14:29:00,59.9099782,30.264819,ч.3 ст.158 (Кража); Уголовный Кодекс; Россия
11428941,В Санкт-Петербурге оперативники уголовного розыска по «горячим» следам раскрыли убийство,2017-10-26 09:24:00,59.93908379999999,30.3763043,ч.1 ст.105 (Убийство); Уголовный Кодекс; Россия
11420011,Во Фрунзенском районе Санкт-Петербурга задержаны подозреваемые в незаконном хранении оружия и боеприпасов,2017-10-25 11:19:00,59.86801080000001,30.3658736,ч.1 ст.222 (Незаконное Хранение Оружия и Боеприпасов); Уголовный Кодекс; Россия
11395091,В Петербурге полицейские задержали «карманника»,2017-10-21 10:09:00,60.0317146,30.3205306,ч.2 ст.158 (Кража); Уголовный Кодекс; Россия
11386651,Сотрудники полиции задержали подозреваемых в разбое в отношении двух молодых жителей Кировского района,2017-10-20 09:15:00,59.82705670000001,30.1979701,ч.2 ст.162 (Разбой); Уголовный Кодекс; Россия
11386583,В Красносельском районе Петербурга раскрыто разбойное нападение на магазин,2017-10-20 09:10:00,59.83845900000001,30.17426,ч.2 ст.162 (Разбой); Уголовный Кодекс; Россия
11379028,В Приморском районе Петербурга пресечена деятельность притона для занятий проституцией,2017-10-19 11:52:00,60.014286,30.253591,ст.6.11 (Занятие Проституцией); Кодекс Об Административных Правонарушениях; Россия
11378961,"Возбуждено уголовное дело по факту аварии, в которой погибла девочка",2017-10-19 11:47:00,60.07623830000001,30.121383,ст.264; Уголовный Кодекс; Россия
11369090,В Санкт-Петербурге полицейские изъяли почти 20 тонн стеклоомывателя на основе метанола,2017-10-18 09:24:00,59.9134639,30.3816374,ст.14.1 (Осуществление Предпринимательской Деятельности Без Государственной Регистрации Или Без Лицензии); Кодекс Об Административных Правонарушениях; Россия
11358520,"В Петербурге раскрыт уличный грабеж, совершенный более двух лет назад",2017-10-17 08:56:00,60.0666543,30.3040869,ч.2 ст.161 (Грабеж); Уголовный Кодекс; Россия
11358383,В Кировском районе Петербурга раскрыта квартирная кража,2017-10-17 08:46:00,59.87904099999999,30.269393,ч.2 ст.158 (Кража); Уголовный Кодекс; Россия
11358153,Полиция расследует кражу грузовиков в Выборгском районе Санкт-Петербурга,2017-10-17 08:22:00,60.07345189999999,30.329421,ч.4 ст.158 (Кража); Уголовный Кодекс; Россия
11358088,Во Фрунзенском районе Петербурга задержаны уличные грабители,2017-10-17 08:13:00,59.86224300000001,30.366574,ч.2 ст.162 (Разбой); Уголовный Кодекс; Россия
11351381,Полиция задержала подозреваемых в преступлении сексуального характера в отношении несовершеннолетней,2017-10-16 11:57:00,60.0571668,30.3717366,ч.3 ст.131 (Изнасилование); Уголовный Кодекс; Россия
11350870,"В Петербурге полицейские, применив табельное оружие, задержали нетрезвого водителя",2017-10-16 11:16:00,60.0034866,30.2950447,"ч.4 ст.12.15 (Нарушение Правил Расположения Транспортного Средства На Проезжей Части Дороги, Встречного Разъезда Или...); Кодекс Об Административных Правонарушениях; Россия"
11343131,Полицейские по «горячим» следам задержали автоугонщиков,2017-10-14 11:13:00,59.8432042,30.2524054,ст.158 (Кража); Уголовный Кодекс; Россия
11323026,"В Петербурге задержаны шестеро граждан, находящихся в межгосударственном розыске",2017-10-12 09:13:00,59.9916805,29.7902522,ч.3 ст.327 (Использование Заведомо Подложного Документа); Уголовный Кодекс; Россия
11312833,Полиция Петербурга устанавливает обстоятельства мошенничества в отношении пожилых людей,2017-10-11 09:17:00,59.9439155,30.4791466,ч.2 ст.159 (Мошенничество); Уголовный Кодекс; Россия
11304276,В Адмиралтейском районе Петербурга пресечена деятельность притона для занятий проституцией,2017-10-10 10:22:00,59.926489,30.324642,ст.6.11 (Занятие Проституцией); Кодекс Об Административных Правонарушениях; Россия
11303252,В Выборгском районе Петербурга задержаны подозреваемые в краже мопеда,2017-10-10 08:24:00,60.0467919,30.3281128,ч.2 ст.158 (Кража); Уголовный Кодекс; Россия
11303159,Полиция расследует разбойное нападение на автозаправку в Приморском районе Петербурга,2017-10-10 08:10:00,59.992107,30.16445999999999,ч.2 ст.162 (Разбой); Уголовный Кодекс; Россия
11297979,В Кировском районе Петербурга полицейские закрыли притон для занятий проституцией,2017-10-09 14:12:00,59.8540133,30.2407856,ст.6.11 (Занятие Проституцией); Кодекс Об Административных Правонарушениях; Россия
11294440,В Невском районе задержан подозреваемый в заведомо ложном заминировании дома,2017-10-09 08:41:00,59.89283909999999,30.4759636,ст.20.1; Кодекс Об Административных Правонарушениях; Россия
11280552,В Кировском районе Петербурга полицейские расследуют мошенничество в отношении пожилого человека,2017-10-06 09:03:00,59.83221400000001,30.195115,ч.3 ст.159 (Мошенничество); Уголовный Кодекс; Россия
11272969,"Внимание, розыск!",2017-10-05 11:30:00,59.837182,30.3542893,ч.2 ст.131 (Изнасилование); Уголовный Кодекс; Россия
11272875,В Санкт-Петербурге раскрыто убийство 15-летней давности,2017-10-05 11:15:00,60.07623830000001,30.121383,ч.1 ст.105 (Убийство); Уголовный Кодекс; Россия
11259236,В Петербурге пресечен факт незаконного размещения торговых объектов под предлогом проведения культмассового мероприятия,2017-10-04 09:00:00,60.0192363,30.4040023,ст.7.1 (Самовольное Занятие Земельного Участка); Кодекс Об Административных Правонарушениях; Россия
11261560,В Калининском районе Санкт-Петербурга полиция расследует разбой в ломбарде,2017-10-04 08:22:00,60.04132790000001,30.39377409999999,ч.2 ст.162 (Разбой); Уголовный Кодекс; Россия
11259255,В Центральном районе Санкт-Петербурга полицейские ликвидировали притон для занятий проституцией,2017-10-03 17:30:00,59.94804550000001,30.3432489,ст.6.11 (Занятие Проституцией); Кодекс Об Административных Правонарушениях; Россия
11259233,В Санкт-Петербурге выявлены нарушения в сфере размещения рекламы,2017-10-03 17:24:00,59.86464050000001,30.5109408,ст.14.37 (Нарушения Требований к Установке и (Или) Эксплуатации Рекламной Конструкции); Кодекс Об Административных Правонарушениях; Россия
11254235,В Петербурге задержан подозреваемый в причастности к незаконному распространению наркотиков,2017-10-03 13:00:00,60.07623830000001,30.121383,ч.3 ст.30; Уголовный Кодекс; Россия
11237714,В Приморском районе задержан подозреваемый в незаконном хранении амфетамина,2017-09-30 10:23:00,60.07623830000001,30.121383,ч.3 ст.228 (Незаконное Хранение Наркотических Средств и Психотропных Веществ); Уголовный Кодекс; Россия
11226783,В центре Санкт-Петербурга полицейские обнаружили «резиновую» квартиру в расселенном доме,2017-09-29 09:27:00,59.94279029999999,30.3603416,ст.18.8 (Нарушение Иностранным Гражданином Или Лицом Без Гражданства Правил Въезда в Российскую Федерацию Либо...); Кодекс Об Административных Правонарушениях; Россия
11226209,Сотрудники полиции раскрыли ограбление прохожего в Центральном районе,2017-09-29 08:33:00,59.929883,30.354023,ч.2 ст.161 (Грабеж); Уголовный Кодекс; Россия
11216905,По «горячим» следам полицейские Выборга задержали автоугонщика,2017-09-28 09:19:00,60.0431958,30.3175675,ч.1 ст.166 (Неправомерное Завладение Транспортным Средством Без Цели Хищения); Уголовный Кодекс; Россия
11210341,В Калининском районе по «горячим» следам задержан подозреваемый в нанесении травм подростку,2017-09-27 12:07:00,60.07623830000001,30.121383,ч.2 ст.111 (Умышленное Причинение Тяжкого Вреда Здоровью); Уголовный Кодекс; Россия
11209049,Сотрудники полиции задержали подозреваемого в жестоком убийстве в продуктовом магазине,2017-09-27 10:06:00,59.955836,30.328012,ч.1 ст.105 (Убийство); Уголовный Кодекс; Россия
11208221,Полицейские по «горячим» следам задержали автоугонщиков,2017-09-27 08:16:00,59.901383,30.471601,ч.3 ст.158 (Кража); Уголовный Кодекс; Россия
11205934,"Сотрудники полиции задержали злоумышленников, подозреваемых в грабежах в отношении пожилых женщин",2017-09-26 17:29:00,59.864098,30.306237,ч.2 ст.161 (Грабеж); Уголовный Кодекс; Россия
11199401,Миграционный рейд выявил возможную противозаконную деятельность в сфере оформления документов,2017-09-26 09:22:00,59.9377535,30.3879333,ст.18.8; Кодекс Об Административных Правонарушениях; Россия
11199390,В Ломоносовском районе Ленобласти раскрыты кражи из автомобиля и трактора,2017-09-26 09:21:00,60.07623830000001,30.121383,ч.2 ст.158 (Кража); Уголовный Кодекс; Россия
11199068,В Ленинградской области менее суток потребовалось полицейским для раскрытия особо тяжкого преступления,2017-09-26 08:50:00,60.07623830000001,30.121383,п.А ч.2 ст.126; Уголовный Кодекс; Россия
11179891,Полицейские в ходе профилактической операции выявили нарушения административного законодательства,2017-09-24 08:30:00,59.93301999999999,30.437563,"ст.14.2 (Незаконная Продажа Товаров, Свободная Реализация Которых Запрещена Или Ограничена); Кодекс Об Административных Правонарушениях; Россия"
11179825,В Московском районе Санкт-Петербурга полицейские закрыли очередной притон для занятий проституцией,2017-09-22 11:46:00,59.860369,30.32022,ст.6.11 (Занятие Проституцией); Кодекс Об Административных Правонарушениях; Россия
11177912,На Васильевском острове проведена проверка по выявлению нарушений в сфере миграционного законодательства,2017-09-22 09:05:00,59.92858200000001,30.240898,ч.3 ст.19.27 (Представление Ложных Сведений При Осуществлении Миграционного Учета); Кодекс Об Административных Правонарушениях; Россия
11174859,Полицейские демонтировали незаконно установленную рекламу корабля-ресторана в Петроградском районе,2017-09-21 17:08:00,59.96085789999999,30.3347963,ст.14.37 (Нарушения Требований к Установке и (Или) Эксплуатации Рекламной Конструкции); Кодекс Об Административных Правонарушениях; Россия
11174272,Полицейские изъяли 20 килограммов насвая из незаконного оборота,2017-09-21 16:13:00,59.9284874,30.3278806,ст.14.53 (Несоблюдение Ограничений и Нарушений Запретов в Сфере Торговли Табачной Продукцией); Кодекс Об Административных Правонарушениях; Россия
11159990,В Петербурге раскрыто ограбление случайной прохожей,2017-09-20 09:09:00,59.8319783,30.3849189,ч.2 ст.161 (Грабеж); Уголовный Кодекс; Россия
11151310,В Петербурге полицейские задержали подозреваемых в разбойном нападении,2017-09-19 08:36:00,59.855372,30.183528,ч.2 ст.162 (Разбой); Уголовный Кодекс; Россия
11141716,В Ленинградской области сотрудники полиции по «горячим» следам раскрыли угон автомобиля,2017-09-18 09:05:00,60.07623830000001,30.121383,ч.1 ст.166 (Неправомерное Завладение Транспортным Средством Без Цели Хищения); Уголовный Кодекс; Россия
11136483,В отношении 23-летнего гражданина возбуждено уголовное дело за заведомо ложный донос,2017-09-16 10:14:00,59.93868999999999,30.374256,ч.1 ст.306; Уголовный Кодекс; Россия
11120142,В Металлострое обнаружен цех по производству контрафактного алкоголя,2017-09-15 13:00:00,60.07623830000001,30.121383,"п.5 ст.171.1 (Производство, Приобретение, Хранение, Перевозка в Целях Сбыта Или Продажа Немаркированной Алкогольной...); Уголовный Кодекс; Россия"
11116317,Полицейские изъяли из незаконной реализации тысячу пачек табака для кальяна,2017-09-13 17:07:00,59.925653,30.402818,"ст.14.2 (Незаконная Продажа Товаров, Свободная Реализация Которых Запрещена Или Ограничена); Кодекс Об Административных Правонарушениях; Россия"
11110223,За минувшие сутки в Петербурге двое пожилых людей стали жертвами мошенничества,2017-09-13 09:11:00,59.9821251,30.4110597,ч.2 ст.159 (Мошенничество); Уголовный Кодекс; Россия
11104177,В Петербурге полицейские устанавливают обстоятельства хищения двух дорогостоящих иномарок,2017-09-12 13:02:00,59.98934490000001,30.2560851,ч.4 ст.158 (Кража); Уголовный Кодекс; Россия
11100913,В Ленинградской области возбуждено уголовное дело в отношении участника смертельной аварии,2017-09-12 09:07:00,60.07623830000001,30.121383,ч.3 ст.264; Уголовный Кодекс; Россия
11100889,В Красносельском районе Петербурга по «горячим» следам раскрыто хищение иномарки,2017-09-12 09:04:00,59.85114239999999,30.2186631,ч.3 ст.158 (Кража); Уголовный Кодекс; Россия
11088239,В Ленинградской области задержан подозреваемый в преступлении сексуального характера,2017-09-10 11:10:00,59.9357625,30.3731249,ч.1 ст.131 (Изнасилование); Уголовный Кодекс; Россия
11082017,В Купчино пресечен очередной факт незаконного размещения торгового объекта,2017-09-10 10:00:00,59.8259853,30.410042,ст.7.1 (Самовольное Занятие Земельного Участка); Кодекс Об Административных Правонарушениях; Россия
11087944,"В Санкт-Петербурге ""по горячим следам"" задержан подозреваемый в умышленном причинении тяжкого вреда здоровью",2017-09-10 09:54:00,60.07623830000001,30.121383,ч.1 ст.111 (Умышленное Причинение Тяжкого Вреда Здоровью); Уголовный Кодекс; Россия
11067842,В Приморском районе Петербурга задержан подозреваемый в сексуальном преступлении,2017-09-07 11:41:00,60.07623830000001,30.121383,ч.2 ст.131 (Изнасилование); Уголовный Кодекс; Россия
11055748,Серию велосипедных краж раскрыли полицейские в Ленинградской области,2017-09-06 09:00:00,59.95516600000001,30.289185,ч.2 ст.158 (Кража); Уголовный Кодекс; Россия
11055713,В Санкт-Петербурге раскрыта серия квартирных краж,2017-09-06 08:57:00,59.99975849999999,30.2008463,ч.3 ст.158 (Кража); Уголовный Кодекс; Россия
11031871,"Задержан гражданин, находящийся в федеральном розыске",2017-09-03 11:23:00,60.07623830000001,30.121383,ч.4 ст.111 (Умышленное Причинение Тяжкого Вреда Здоровью); Уголовный Кодекс; Россия
11028410,В Санкт-Петербурге сотрудники полиции раскрыли угон автомобиля,2017-09-02 10:35:00,60.0545334,30.314511,ч.1 ст.166 (Неправомерное Завладение Автомобилем); Уголовный Кодекс; Россия
11019074,Полиция расследует ограбление продуктового магазина в Красносельском районе Петербурга,2017-09-01 09:49:00,59.85710029999999,30.1957534,ч.2 док.часть 161 (Грабеж); Уголовный Кодекс; Россия
11018542,Сотрудники полиции раскрыли хищение трех иномарок в Кировском районе Петербурга,2017-09-01 09:06:00,59.851333,30.266696,ч.3 ст.158 (Кража); Уголовный Кодекс; Россия
11016887,"Минувшей ночью на набережной Крюкова канала произошел инцидент, в ходе которого неизвестные повредили фасад здания",2017-08-31 21:24:00,59.92401099999999,30.2966464,ч.2 ст.213 (Хулиганство); Уголовный Кодекс; Россия
11010722,В Петербурге демонтированы незаконно установленные рекламные конструкции,2017-08-31 11:53:00,59.74980199999999,30.0925051,ст.14.37 (Нарушения Требований к Установке и (Или) Эксплуатации Рекламной Конструкции); Кодекс Об Административных Правонарушениях; Россия
11010715,Во Фрунзенском районе Санкт-Петербурга закрыт притон по оказанию интимных услуг,2017-08-31 11:52:00,59.837295,30.394045,ст.6.11 (Занятие Проституцией); Кодекс Об Административных Правонарушениях; Россия
10987907,Задержанный за разбойное нападение на магазин изобличен в еще одном преступлении,2017-08-29 09:14:00,60.07623830000001,30.121383,ч.1 ст.222 (Незаконное Хранение Боеприпасов); Уголовный Кодекс; Россия
10980649,В Центральном районе пресечена деятельность притона для занятий проституцией,2017-08-28 11:09:00,59.933654,30.344415,ст.6.11 (Занятие Проституцией); Кодекс Об Административных Правонарушениях; Россия
10979332,Полицейские задержали участников конфликта на Обводном канале,2017-08-28 09:13:00,59.9053815,30.2843285,ч.3 ст.111 (Умышленное Причинение Тяжкого Вреда Здоровью); Уголовный Кодекс; Россия
10977446,Полиция задержала подозреваемого в хищении грузового автомобиля,2017-08-27 14:01:00,59.85984299999999,30.22706,ч.4 ст.158 (Кража); Уголовный Кодекс
10977120,В Центральном районе «по горячим следам» раскрыт угон автомобиля,2017-08-27 10:40:00,59.94434500000001,30.392469,ч.1 ст.166 (Неправомерное Завладение Автомобилем Или Иным Транспортным Средством Без Цели Хищения); Уголовный Кодекс; Россия
10974964,"Задержан гражданин, совершивший поджог иномарки",2017-08-26 10:38:00,59.88255599999999,30.460318,ст.167 (Умышленные Уничтожение Или Повреждение Имущества); Уголовный Кодекс; Россия
10967025,В Петербурге задержан подозреваемый в незаконном хранении психостимуляторов,2017-08-25 09:08:00,60.07623830000001,30.121383,ч.2 ст.228 (Незаконное Хранение Наркотических Средств в Крупном Размере); Уголовный Кодекс; Россия
10966965,"Полиция разыскивает злоумышленников, похитивших крупную сумму денег у петербуржца",2017-08-25 09:02:00,60.0183705,30.3179297,ч.3 ст.161 (Грабеж); Уголовный Кодекс; Россия
10960235,В Московском районе Петербурга пресечен очередной факт незаконного размещения торгового объекта,2017-08-24 11:54:00,60.07623830000001,30.121383,ст.7.1 (Самовольное Занятие Земельного Участка); Кодекс Об Административных Правонарушениях; Россия
10959239,"В Петербурге пресечена деятельность автоугонщиков, специализировавшихся на кражах легковых автомобилей",2017-08-24 10:08:00,59.85915739999999,30.225254,ч.3 ст.158 (Кража); Уголовный Кодекс; Россия
10958783,В Кировском районе сотрудники полиции расследуют разбой в ювелирном магазине,2017-08-24 09:20:00,59.8341266,30.2032037,ч.2 ст.162 (Разбой); Уголовный Кодекс; Россия
10958737,"В Петербурге задержана гражданка, три года разыскиваемая за экономическое преступление",2017-08-24 09:14:00,60.07623830000001,30.121383,ч.3 ст.160 (Присвоение Или Растрата); Уголовный Кодекс; Россия
10950599,В центре Петербурга полицейские обнаружили притон для занятий проституцией,2017-08-23 10:31:00,59.9648814,30.2989205,ст.6.11 (Занятие Проституцией); Кодекс Об Административных Правонарушениях; Россия
10942158,Полицейские изъяли контрафакт в торговом центре на юге Петербурга,2017-08-22 10:54:00,59.834165,30.204766,ст.14.10 (Незаконное Использование Средств Индивидуализации Товаров); Кодекс Об Административных Правонарушениях; Россия
10940985,По «горячим» следам полицейские раскрыли разбойное нападение на таксиста,2017-08-22 09:17:00,59.9342802,30.3350986,ч.2 ст.162 (Разбой); Уголовный Кодекс; Россия
10931929,В Московском районе Петербурга пресечены факты незаконного размещения торговых объектов,2017-08-21 09:07:00,59.8301269,30.3749288,ст.7.1 (Самовольное Занятие Земельного Участка); Кодекс Об Административных Правонарушениях; Россия
10927210,В Ленинградской области задержаны подозреваемые в краже иномарки с помощью эвакуатора,2017-08-19 11:24:00,60.07623830000001,30.121383,ч.4 ст.158 (Кража); Уголовный Кодекс; Россия
10896780,В Петергофе полицейские изъяли у водителя кокаин,2017-08-15 12:25:00,59.957726,30.297087,ч.1 ст.228 (Незаконное Хранение Наркотических Средств и Психотропных Веществ); Уголовный Кодекс; Россия
10895204,В отношении двух полицейских проводится служебная проверка,2017-08-15 10:14:00,60.07421119999999,30.2535895,ч.5 ст.290 (Получение Взятки); Уголовный Кодекс; Россия
10887205,"В Санкт-Петербурге задержан мужчина, подозреваемый в преступлении сексуального характера",2017-08-14 12:39:00,60.07623830000001,30.121383,ч.4 ст.132 (Насильственные Действия Сексуального Характера в Отношении Несовершеннолетней); Уголовный Кодекс; Россия
10885553,В складских помещениях на юге Петербурга проведен профилактический рейд,2017-08-14 11:04:00,60.07623830000001,30.121383,ст.18.10 (Незаконное Осуществление Иностранным Гражданином Трудовой Деятельности в Российской Федерации); Кодекс Об Административных Правонарушениях; Россия
10881371,«По горячим следам» раскрыт угон автомобиля в Санкт-Петербурге,2017-08-13 09:46:00,59.745692,30.6078898,ч.1 ст.166 (Неправомерное Завладение Автомобилем); Уголовный Кодекс; Россия
10878436,В Петербурге полиция задержала подозреваемого в краже кошелька у туриста,2017-08-12 10:49:00,59.93574,30.32577,ч.2 ст.158 (Кража); Уголовный Кодекс; Россия
10869210,На севере Петербурга полицейские задержали подозреваемого в незаконном хранении наркотиков,2017-08-11 09:09:00,60.05551500000001,30.3607943,ч.1 ст.228 (Незаконное Хранение Наркотических Средств и Психотропных Веществ); Уголовный Кодекс; Россия
10864837,Проводится проверка по факту возбуждения уголовного дела в отношении полицейского,2017-08-10 15:38:00,59.91535949999999,30.4914724,ч.3 ст.30; Уголовный Кодекс; Россия
10855039,На Васильевском острове полицейские задержали двух автоугонщиков,2017-08-09 13:09:00,59.94400700000001,30.234407,ч.2 ст.158 (Кража); Уголовный Кодекс; Россия
10853162,"В Санкт-Петербурге задержан гражданин, находящийся в федеральном розыске",2017-08-09 10:22:00,60.07623830000001,30.121383,ч.3 ст.228.1 (Незаконный Сбыт Наркотических Средств и Психотропных Веществ); Уголовный Кодекс; Россия
10853141,В Выборгском районе Петербурга задержали подозреваемого в краже автомобиля у своего родственника,2017-08-09 10:21:00,59.982951,30.344026,ч.4 ст.158 (Кража); Уголовный Кодекс; Россия
10846893,В Петербурге полицией раскрыто убийство двух женщин,2017-08-08 12:43:00,59.9311884,30.3743439,ч.2 ст.105 (Убийство); Уголовный Кодекс; Россия
10844419,В Санкт-Петербурге полицейские изъяли партию растительных наркотиков,2017-08-08 08:54:00,60.004198,30.301335,ч.4 ст.228.1 (Незаконный Сбыт Наркотических Средств и Психотропных Веществ); Уголовный Кодекс; Россия
10834679,"Возбуждено уголовное дело по факту дорожной аварии, в результате которой погибли люди",2017-08-06 13:18:00,60.07623830000001,30.121383,ч.5 ст.264; Уголовный Кодекс; Россия
10832267,Сотрудники полиции задержали подозреваемого в совершении разбойного нападени,2017-08-05 09:51:00,59.94721800000001,30.497165,ч.1 ст.162 (Разбой); Уголовный Кодекс; Россия
10832262,"В Санкт-Петербурге задержан гражданин, находящийся в федеральном розыске",2017-08-05 09:49:00,59.9252148,30.3496447,"ч.2 ст.228 (Незаконные Приобретение, Хранение и Изготовление Наркотиков); Уголовный Кодекс; Россия"
10825162,С поличным задержаны подозреваемые в краже у пожилой посетительницы отделения связи,2017-08-04 09:07:00,60.0545717,30.3293232,ч.2 ст.158 (Кража); Уголовный Кодекс; Россия
10817575,"В суд передано дело о ДТП, в котором погиб байкер",2017-08-03 09:36:00,59.98396899999999,30.427746,ч.3 ст.264; Уголовный Кодекс; Россия
10809825,В книжном магазине с поличным задержали «карманницу»,2017-08-02 09:01:00,60.01151899999999,30.398033,ч.2 ст.158 (Кража); Уголовный Кодекс; Россия
10802559,Полиция задержала подозреваемых в покушении на сбыт крупной партии психостимуляторов,2017-08-01 10:40:00,59.839547,30.18145,ч.3 ст.30; Уголовный Кодекс; Россия
10801522,В Кировском районе Петербурга полицейские раскрыли кражу в отделении связи,2017-08-01 09:11:00,59.8330574,30.2177561,ч.2 ст.158 (Кража); Уголовный Кодекс; Россия
10780245,Раскрыто очередное мошенничество в отношении пожилой петербурженки,2017-07-28 09:40:00,59.8400221,30.1472373,ч.3 ст.159 (Мошенничество); Уголовный Кодекс; Россия
10771208,Полиция расследует факт хищения дорогой иномарки,2017-07-26 19:21:00,60.00788899999999,30.325361,ч.4 ст.158 (Кража); Уголовный Кодекс; Россия
10768029,"В Кировском районе Санкт-Петербурга полицией задержан гражданин, до смерти избивший своего пожилого отца",2017-07-26 13:17:00,59.886334,30.274052,"ч.4 ст.111 (Умышленное Причинение Тяжкого Вреда Здоровью, Повлекшее Смерть); Уголовный Кодекс; Россия"
10757483,В Калининском районе раскрыто разбойное нападение на случайного прохожего,2017-07-25 09:18:00,60.07623830000001,30.121383,ч.2 ст.162 (Разбой); Уголовный Кодекс; Россия
10753883,"Раскрыто убийство женщины, труп которой был обнаружен у дома на проспекте Луначарского",2017-07-24 15:46:00,60.04197599999999,30.344693,ч.1 ст.105 (Убийство); Уголовный Кодекс; Россия
10751939,Полиция Приморского района расследует кражу дорогостоящей иномарки,2017-07-24 12:40:00,59.99168479999999,30.3050286,ч.4 ст.158 (Кража); Уголовный Кодекс; Россия
10746380,В Петербурге задержан подозреваемый в сбыте наркотиков,2017-07-22 11:11:00,60.0029941,30.2285119,ч.4 ст.228.1 (Незаконный Сбыт Наркотических Средств); Уголовный Кодекс; Россия
10741160,В Калининском районе расследуется грабеж у пожилой хозяйки квартиры,2017-07-21 12:33:00,60.04063799999999,30.37359,ч.1 ст.161 (Грабеж); Уголовный Кодекс; Россия
10740283,По жалобе граждан полицейские проверили квартиру с мигрантами,2017-07-21 11:29:00,59.930752,30.384606,ч.3 ст.18.8 (Нарушение Иностранным Гражданином Или Лицом Без Гражданства Правил Въезда в Российскую Федерацию Либо...); Кодекс Об Административных Правонарушениях; Россия
10739557,В Санкт-Петербурге сотрудники полиции нашли потерявшихся мальчика и девочку,2017-07-21 10:34:00,60.07623830000001,30.121383,ст.5.35 (Неисполнение Родителями Обязанностей По Содержанию и Воспитанию Детей); Кодекс Об Административных Правонарушениях; Россия
10738470,Раскрыто разбойное нападение с элементом инсценировки на двух подростков в Приморском районе,2017-07-21 09:19:00,60.01735429999999,30.3119346,ч.2 ст.162 (Разбой); Уголовный Кодекс; Россия
10729855,В Московском районе задержан подозреваемый в разбойном нападении на случайного прохожего,2017-07-20 09:35:00,59.839517,30.339202,ч.2 ст.162 (Разбой); Уголовный Кодекс; Россия
10729630,В Петербурге пресечена попытка сбыта крупной партии амфетамина,2017-07-20 09:14:00,59.7388553,30.5721941,ч.3 ст.30; Уголовный Кодекс; Россия
10722968,В центре Санкт-Петербурга задержан агрессивный владелец пневматики,2017-07-19 11:42:00,59.9356435,30.3274655,ст.20.1 (Мелкое Хулиганство); Кодекс Об Административных Правонарушениях; Россия
10710520,Двое мужчин задержаны по подозрению в повреждении припаркованных машин,2017-07-17 17:12:00,60.032526,30.421192,ч.1 ст.167 (Повреждение Имущества); Уголовный Кодекс; Россия
10705470,В Ленинградской области расследуется разбойное нападение на автоледи,2017-07-17 09:00:00,60.07623830000001,30.121383,ч.2 ст.162 (Разбой); Уголовный Кодекс; Россия
10703119,В Красном Селе полицией раскрыт грабеж в отношении повара сети общественного питания,2017-07-16 10:21:00,59.7224923,30.0804365,ч.2 ст.161 (Грабеж); Уголовный Кодекс; Россия
10694044,В Красносельском районе Петербурга раскрыли кражу из частного дома,2017-07-14 09:33:00,59.7672099,30.1120471,ч.3 ст.158 (Кража с Незаконным Проникновением в Жилище); Уголовный Кодекс; Россия
10693800,В Санкт-Петербурге раскрыто мошенничество с продажей квартиры,2017-07-14 09:11:00,59.953638,30.477276,ч.4 ст.159 (Мошенничество); Уголовный Кодекс; Россия
10677183,Сотрудники полиции изобличили петербурженку в серии краж из подсобок аптек,2017-07-12 09:02:00,59.930345,30.410292,ч.2 ст.158 (Кража); Уголовный Кодекс; Россия
10677180,"С поличным задержаны трое злоумышленников, подозреваемых в квартирном разбое в Московском районе",2017-07-12 09:01:00,59.861526,30.307962,ч.2 ст.162 (Разбой); Уголовный Кодекс; Россия
10670330,Задержанный за незаконное хранение наркотиков причастен к двум кражам в Сосновом Бору,2017-07-11 08:58:00,60.07623830000001,30.121383,док.часть 2; Уголовный Кодекс; Россия
10656916,"На Рубинштейна с поличным задержан гражданин, похитивший денежные средства у женщины",2017-07-08 11:24:00,60.07623830000001,30.121383,ч.2 ст.158 (Кража); Уголовный Кодекс; Россия
10656870,В Приморском районе полицией раскрыто разбойное нападение на мужчину,2017-07-08 11:16:00,60.07623830000001,30.121383,ч.2 ст.162; Уголовный Кодекс; Россия
10656392,"В Петербурге с поличным задержан злоумышленник, похитивший кошелёк у туриста",2017-07-08 10:16:00,59.93604269999999,30.322952,ч.2 ст.158 (Кража); Уголовный Кодекс; Россия
10656373,"В Петербурге задержан гражданин, ранивший подростка из пневматического оружия",2017-07-08 10:14:00,59.959253,30.315649,ч.1 ст.213 (Хулиганство); Уголовный Кодекс; Россия
10654454,"Очередной ""квартирный"" интим-салон обнаружили в Санкт-Петербурге",2017-07-08 09:00:00,59.8513198,30.320377,ст.6.11 (Занятие Проституцией); Кодекс Об Административных Правонарушениях; Россия
10647811,Полицейские провели профилактический рейд в гостинице в центре Петербурга,2017-07-07 10:25:00,59.93879150000001,30.3504968,ст.322.2 (Фиктивная Постановка На Учет Иностранного Гражданина Или Лица Без Гражданства По Месту Пребывания в Жилом...); Уголовный Кодекс; Россия
10647688,"В Центральном районе по ""горячим"" следам раскрыта кража из офиса",2017-07-07 09:06:00,59.929051,30.3880219,ч.2 ст.158 (Кража); Уголовный Кодекс; Россия
10638353,"Оперативники уголовного розыска задержали петербуржца, хранившего в машине 40 свертков с амфетамином",2017-07-06 09:13:00,59.93519569999999,30.5002161,ч.2 ст.228 (Незаконное Хранение Наркотических Средств и Психотропных Веществ); Уголовный Кодекс; Россия
10638149,В Петербурге у подозреваемого в сбыте наркотиков полицейские изъяли четверть килограмма мефедрона,2017-07-06 08:50:00,60.06951729999999,30.3293348,ч.4 ст.228.1 (Незаконный Сбыт Наркотических Средств и Психотропных Веществ); Уголовный Кодекс; Россия
10631794,Во Фрунзенском районе возбуждено уголовное дело по факту незаконного хранения оружия,2017-07-05 10:47:00,59.8334434,30.4250947,"ч.1 ст.222 (Незаконное Приобретение, Передача, Сбыт, Хранение, Перевозка Или Ношение Оружия); Уголовный Кодекс; Россия"
10631337,Полицейские по «горячим» следам задержали колпинского автоугонщика,2017-07-05 09:52:00,59.7465224,30.613615,ч.2 ст.158 (Кража); Уголовный Кодекс; Россия
10630850,Сотрудники полиции раскрыли ограбление салона сотовой связи в Невском районе Петербурга,2017-07-05 09:04:00,59.9063321,30.4796076,ч.2 ст.161 (Грабеж); Уголовный Кодекс; Россия
10623347,В Курортном районе Санкт-Петербурга раскрыта серия краж велосипедов,2017-07-04 09:14:00,60.07623830000001,30.121383,ч.2 ст.158 (Кража); Уголовный Кодекс; Россия
10623259,Задержан участник разбоя на территории мясокомбината в Московском районе,2017-07-04 09:05:00,59.8267484,30.3509731,ч.2 ст.162 (Разбой); Уголовный Кодекс; Россия
10613969,В Кировском районе Ленинградской области полиция расследует нападение на пенсионерку,2017-07-03 09:39:00,60.07623830000001,30.121383,ч.2 ст.161 (Грабеж); Уголовный Кодекс; Россия
10613905,В Петербурге полицией раскрыта кража у иностранной туристки в автобусе,2017-07-03 09:34:00,59.9360843,30.3219437,ч.2 ст.158 (Кража); Уголовный Кодекс; Россия
10613733,В центре Петербурга раскрыта кража у туристки почти на полтора миллиона рублей,2017-07-03 09:10:00,59.93574,30.32577,ч.4 ст.158 (Кража); Уголовный Кодекс; Россия
10605685,Притон для занятий проституцией закрыли в Приморском районе Петербурга,2017-07-01 08:45:00,60.00238699999999,30.205395,ст.6.11 (Занятие Проституцией); Кодекс Об Административных Правонарушениях; Россия
10602954,В Санкт-Петербурге задержаны двое подозреваемых в совершении кражи в особо крупном размере,2017-06-30 13:44:00,60.00152499999999,30.353523,ч.4 ст.158 (Кража в Особо Крупном Размере); Уголовный Кодекс; Россия
10602361,В Центральном районе Санкт-Петербурга в жилом доме выявили интим-салон,2017-06-30 12:43:00,59.91566520000001,30.345763,ст.6.11 (Занятие Проституцией); Кодекс Об Административных Правонарушениях; Россия
10600284,"Петербуржец, ударивший ножом членов своей семьи, задержан",2017-06-30 11:10:00,59.912776,30.405801,ст.30; Уголовный Кодекс; Россия
10599862,В Санкт-Петербурге задержаны подозреваемые в уличном разбое,2017-06-30 09:09:00,59.894558,30.317945,ч.2 ст.162 (Разбой); Уголовный Кодекс; Россия
10599841,В Купчино сотрудники полиции раскрыли кражу мопеда,2017-06-30 09:07:00,59.83745800000001,30.401304,ч.2 ст.158 (Кража); Уголовный Кодекс; Россия
10561998,Задержанный в минувшую субботу за карманную кражу изобличен в совершении еще одного преступления,2017-06-26 08:21:00,59.9445465,30.3233213,ч.2 ст.158 (Кража); Уголовный Кодекс; Россия
10559489,"Задержаны участники организованной группы, подозреваемые в убийстве мужчины",2017-06-25 13:32:00,59.9138658,30.4458861,ч.1 ст.105 (Убийство); Уголовный Кодекс; Россия
10559316,Сотрудники полиции обеспечили общественный порядок и безопасность на празднике «Алые паруса»,2017-06-25 12:16:00,59.9342802,30.3350986,ч.2 ст.158 (Кража); Уголовный Кодекс; Россия
10551005,Перед судом предстанет обвиняемый в заведомо ложном доносе о тяжком преступлении,2017-06-23 13:59:00,59.920075,30.41400999999999,ч.3 ст.306; Уголовный Кодекс; Россия
10547999,"В Центральном районе перед судом предстанет мужчина, обвиняемый в серии квартирных краж",2017-06-23 10:12:00,59.94370249999999,30.35876859999999,"ч.3 ст.158 (Кража, Совершенная с Незаконным Проникновением в Жилище); Уголовный Кодекс; Россия"
10546847,В Петербурге задержан вор-«карманник»,2017-06-23 08:41:00,60.07623830000001,30.121383,ч.2 ст.158 (Кража); Уголовный Кодекс; Россия
10543002,В Центральном районе Санкт-Петербурга закрыт притон по оказанию интим-услуг,2017-06-22 16:48:00,59.933654,30.344415,ст.6.11 (Занятие Проституцией); Кодекс Об Административных Правонарушениях; Россия
10537057,Полицейские Калининского района раскрыли уличный разбой,2017-06-22 11:20:00,60.04132790000001,30.39377409999999,ч.2 ст.162 (Разбой); Уголовный Кодекс; Россия
10535232,Петербуржец задержан по подозрению в грабеже и мошенничестве в отношении подростка,2017-06-22 09:51:00,59.84923800000001,30.264503,ч.2 ст.161 (Грабеж); Уголовный Кодекс; Россия
10534699,Расследуется дерзкий квартирный грабеж в Московском районе,2017-06-22 09:12:00,59.8320817,30.3353752,ч.2 ст.161 (Грабеж); Уголовный Кодекс; Россия
10523569,Полиция расследует мошенничество в отношении пожилой жительницы Калининского района Санкт-Петербурга,2017-06-21 09:36:00,60.0091092,30.4322497,ч.2 ст.159 (Мошенничество); Уголовный Кодекс; Россия
10516017,В Московском  районе полицией пресечена деятельность притона для занятий проституцией,2017-06-20 11:45:00,59.851429,30.29374099999999,ст.6.11 (Занятие Проституцией); Кодекс Об Административных Правонарушениях; Россия
10514892,Нетрезвый водитель мопеда привлечен к уголовной ответственности в Санкт-Петербурге,2017-06-20 10:06:00,59.85878400000001,30.24822899999999,ст.264.1; Уголовный Кодекс; Россия
10514169,В Шушарах сотрудники полиции расследуют квартирный грабеж,2017-06-20 08:48:00,59.8076892,30.3810546,ч.2 ст.161 (Грабеж); Уголовный Кодекс; Россия
10492326,В Санкт-Петербурге задержана подозреваемая в незаконном хранении амфетамина,2017-06-16 11:03:00,59.84463779999999,30.263546,ч.2 ст.228 (Незаконное Хранение Наркотических Средств и Психотропных Веществ); Уголовный Кодекс; Россия
10490915,В Приморском районе Петербурга по «горячим» следам задержаны хулиганы,2017-06-16 08:45:00,60.0036281,30.2804768,ч.2 ст.213 (Хулиганство); Уголовный Кодекс; Россия
10473423,В Ленинградской области по «горячим» следам задержан уличный грабитель,2017-06-14 08:57:00,60.07623830000001,30.121383,ч.3 ст.30; Уголовный Кодекс; Россия
10473405,В Петербурге сотрудники полиции по «горячим» следам раскрыли грабеж,2017-06-14 08:55:00,59.9140405,30.3299609,ч.2 ст.161; Уголовно-Процессуальный Кодекс; Россия
10473398,Полиция Петербурга расследует поджог дорогой иномарки,2017-06-14 08:54:00,60.00649599999999,30.425724,ч.2 ст.167 (Умышленное Уничтожение Чужого Имущества); Уголовный Кодекс; Россия
10473384,Полиция Калининского района Петербурга расследует разбойное нападение на проспекте Просвещения,2017-06-14 08:52:00,60.04132790000001,30.39377409999999,ч.2 ст.162 (Разбой); Уголовный Кодекс; Россия
10462643,В центре Петербурга сотрудники полиции задержали «карманницу»,2017-06-13 08:58:00,60.07623830000001,30.121383,ч.2 ст.158 (Кража); Уголовный Кодекс; Россия
10443483,Задержанные карманники-гастролеры изобличены в совершении аналогичного преступления,2017-06-09 09:17:00,60.07623830000001,30.121383,ч.2 ст.158 (Кража); Уголовный Кодекс; Россия
10443409,На счету задержанных за рабой в торговом павильоне еще одно преступление,2017-06-09 09:10:00,59.8469053,30.3666869,ч.2 ст.162 (Разбой); Уголовный Кодекс; Россия
10524488,Полиция изъяла из оборота незаконно добытый янтарь,2017-06-08 13:00:00,59.953844,30.332259,ст.7.5 (Самовольная Добыча Янтаря); Кодекс Об Административных Правонарушениях; Россия
10437011,В Санкт-Петербурге раскрыто особо тяжкое преступление двухлетней давности,2017-06-08 12:37:00,60.07623830000001,30.121383,ч.2 ст.126 (Похищение Человека); Уголовный Кодекс; Россия
10435293,Полицией раскрыто ограбление автовладельца в Московском районе Санкт-Петербурга,2017-06-08 10:36:00,60.07623830000001,30.121383,ч.2 ст.161 (Грабеж); Уголовный Кодекс; Россия
10434224,Полиция расследует мошенничество в отношении пожилой петербурженки,2017-06-08 08:46:00,60.00556909999999,30.2127976,ч.2 ст.159 (Мошенничество); Уголовный Кодекс; Россия
10425484,Полицией изъята партия контрафактного товара в магазине одежды в центре Петербурга,2017-06-07 09:32:00,59.9271974,30.3233175,ст.14.10 (Незаконное Использование Средств Индивидуализации Товаров); Кодекс Об Административных Правонарушениях; Россия
10425053,В Невском районе Санкт-Петербурга раскрыт апрельский квартирный разбой,2017-06-07 08:49:00,59.8413698,30.5042257,ч.2 ст.162 (Разбой); Уголовный Кодекс; Россия
10415222,"В Санкт-Петербурге задержан гражданин, подозреваемый в покушении на незаконный оборот наркотиков в крупном размере",2017-06-06 08:37:00,60.0014419,30.254086,ч.3 ст.30; Уголовный Кодекс; Россия
10409442,"Раскрыто убийство мужчины, труп которого обнаружили в иномарке на проспекте Кима",2017-06-05 12:57:00,60.07623830000001,30.121383,ч.1 ст.105 (Убийство); Уголовный Кодекс; Россия
10407764,"Меньше суток потребовались полицейским, чтобы задержать двух автоугонщиков в Колпино",2017-06-05 10:33:00,59.744635,30.612069,ч.2 ст.158 (Кража); Уголовный Кодекс; Россия
10407078,Раскрыто ограбление петербуржца в сквере на Мытнинской набережной,2017-06-05 09:23:00,59.9314084,30.3746025,ч.2 ст.161 (Грабеж); Уголовный Кодекс; Россия
10397043,Полиция провела рейд по выявлению нарушений действующего законодательства около станции метро «Девяткино»,2017-06-02 14:11:00,60.07623830000001,30.121383,ст.18.8 (Нарушение Иностранным Гражданином Правил Въезда Либо Режима Пребывания в Российской Федерации); Кодекс Об Административных Правонарушениях; Россия
10392996,"В Петербурге задержан подозреваемый в попытке сбыта крупной партии ""синтетики""",2017-06-02 09:35:00,60.0233783,30.4205341,ч.1 ст.30; Уголовный Кодекс; Россия
10392260,Полиция Красносельского района расследует дерзкое разбойное нападение на мужчину в поселке Старо-Паново,2017-06-02 08:40:00,59.8167079,30.1752723,ч.2 ст.162 (Разбой); Уголовный Кодекс; Россия
10385759,В Московском районе Петербурга по горячим следам раскрыт дерзкий разбой в отношении женщины,2017-06-01 14:40:00,59.8456765,30.3223822,ч.2 ст.162 (Разбой); Уголовный Кодекс; Россия
10382066,"В Петроградском районе раскрыто убийство мужчины, труп которого обнаружили в диване в коммуналке",2017-06-01 10:41:00,59.956191,30.306112,"ч.4 ст.111 (Умышленное Причинение Тяжкого Вреда Здоровью, Повлекшее По Неосторожности Смерть); Уголовный Кодекс; Россия"
10367555,Полицией выявлен факт незаконного использования средств индивидуализации товаров брендовой спортивной одежды и обуви,2017-05-30 15:35:00,59.9288312,30.3713653,ст.14.10 (Незаконное Использование Средств Индивидуализации Товаров); Кодекс Об Административных Правонарушениях; Россия
10362310,"В Калининском районе Петербурга разыскивается преступник, напавший на ювелирный магазин",2017-05-30 08:53:00,60.014045,30.39710999999999,ч.2 ст.162 (Разбой); Уголовный Кодекс; Россия
10362296,Сотрудники полиции расследуют разбойное нападение на магазин в Московском районе Петербурга,2017-05-30 08:51:00,59.87550599999999,30.314453,ч.2 ст.162 (Разбой); Уголовный Кодекс; Россия
10353918,В Кировском районе Петербурга задержан подозреваемый в незаконном хранении боеприпасов,2017-05-29 10:23:00,59.8545518,30.2396231,"ч.1 ст.222 (Незаконные Приобретение, Передача, Сбыт, Хранение, Перевозка Или Ношение Оружия, Его Основных Частей...); Уголовный Кодекс; Россия"
10352881,В Купчино раскрыта серия разбойных нападений,2017-05-29 09:04:00,59.83407119999999,30.4374597,ч.2 ст.162 (Разбой); Уголовный Кодекс; Россия
10352780,В Центральном районе Петербурга задержан уличный грабитель,2017-05-29 08:56:00,59.93168,30.345756,ч.2 ст.161 (Грабеж); Уголовный Кодекс; Россия
10349853,В Санкт-Петербурге полицейские задержали подозреваемого в хищении автомобиля,2017-05-28 11:17:00,59.95876999999999,30.442724,ч.3 ст.30; Уголовный Кодекс; Россия
10349777,Полиция разыскивает подозреваемого в грабеже магазина в Красногвардейском районе,2017-05-28 10:58:00,59.9536596,30.48473349999999,ч.2 ст.161 (Грабеж); Уголовный Кодекс; Россия
10342582,В Калининском районе Санкт-Петербурга раскрыто разбойное нападение на подростка,2017-05-26 13:52:00,60.0350583,30.4167295,ч.2 ст.162 (Разбой); Уголовный Кодекс; Россия
10342325,В Невском районе Петербурга у гражданина изъяли оружие,2017-05-26 13:28:00,59.866054,30.444458,ч.1 ст.222 (Незаконное Хранение и Ношение Оружия); Уголовный Кодекс; Россия
10340966,Сотрудники полиции Красногвардейского района Санкт-Петербурга изъяли оружие у пожилого мужчины,2017-05-26 11:30:00,59.976101,30.433112,ч.1 ст.222 (Незаконное Хранение Оружия); Уголовный Кодекс; Россия
10339067,В Купчино полиция расследует разбойное нападение на таксиста,2017-05-26 08:43:00,59.8332919,30.4409757,ч.2 ст.162 (Разбой); Уголовный Кодекс; Россия
10335867,В Петербурге и Ленобласти выявлен ряд нарушений в сфере размещения рекламы и торговли,2017-05-25 16:44:00,59.90840499999999,30.482482,ст.14.37 (Нарушения Требований к Установке и (Или) Эксплуатации Рекламной Конструкции); Кодекс Об Административных Правонарушениях; Россия
10328980,В Красносельском районе Петербурга разыскиваются подозреваемые в дерзком разбойном нападении на мать и дочь,2017-05-25 08:45:00,59.84997500000001,30.17888,ч.3 ст.162 (Разбой); Уголовный Кодекс; Россия
10324397,В Выборгском районе Санкт-Петербурга пресечена деятельность притона для занятий проституцией,2017-05-24 14:14:00,59.99726390000001,30.3304475,ст.18.8 (Нарушение Установленных Правил Пребывания и Жительства На Территории Российской Федерации); Кодекс Об Административных Правонарушениях; Россия
10321035,"В Ленинградской области разыскивается злоумышленник, напавший на пенсионера в его квартире",2017-05-24 09:40:00,60.07623830000001,30.121383,ч.2 ст.161 (Грабеж); Уголовный Кодекс; Россия
10320728,"На счету злоумышленников, задержанных за мошенничества в отношении пожилых петербуржцев, еще несколько преступлений",2017-05-24 09:04:00,59.8654797,30.4509102,ч.2 док.часть 159 (Мошенничество); Уголовный Кодекс; Россия
10320618,"В Санкт-Петербурге задержан мужчина, ограбивший пожилую женщину",2017-05-24 08:46:00,60.1812798,29.8370856,ч.2 ст.161 (Грабеж); Уголовный Кодекс; Россия
10316603,"В Тихвине задержана гражданка, угрожавшая убийством своей бабушке",2017-05-23 15:41:00,60.07623830000001,30.121383,ст.119 (Угроза Убийством); Уголовный Кодекс; Россия
10311857,"В Приморском районе Петербурга задержан злоумышленник, стрелявший по иномарке",2017-05-23 08:51:00,60.0085773,30.2805398,ч.2 ст.213 (Хулиганство); Уголовный Кодекс; Россия
10303189,В Санкт-Петербурге раскрыта серия карманных краж,2017-05-22 09:07:00,59.932564,30.3465358,ч.2 ст.158 (Кража); Уголовный Кодекс; Россия
10298409,Во Фрунзенском районе Санкт-Петербурга закрыт притон по оказанию интим-услуг,2017-05-20 12:45:00,59.8990322,30.3600822,ст.6.11 (Занятие Проституцией); Кодекс Об Административных Правонарушениях; Россия
10297930,"Полиция разыскивает злоумышленника, совершившего кражу из банкомата во Фрунзенском районе",2017-05-20 11:07:00,59.8340556,30.4187083,ч.4 ст.158 (Кража); Уголовный Кодекс; Россия
10297911,В Санкт-Петербурге задержаны подозреваемые в разбойных нападениях на женщин,2017-05-20 10:54:00,60.07623830000001,30.121383,ч.2 ст.161 (Грабеж); Уголовный Кодекс; Россия
10292913,Полицией выявлен факт незаконного использования средств индивидуализации товаров брендовых вещей,2017-05-19 14:25:00,59.8807905,30.458388,ст.14.10 (Незаконное Использование Средств Индивидуализации Товаров); Кодекс Об Административных Правонарушениях; Россия
10289766,В Петербурге расследуется кража из сумки пожилой женщины,2017-05-19 08:50:00,60.0092166,30.2626482,ч.2 ст.158 (Кража); Уголовный Кодекс; Россия
10289590,В центре Петербурга сотрудники полиции с поличным задержали двух воров-«карманников»,2017-05-19 08:29:00,59.932564,30.3465358,ч.2 ст.158 (Кража); Уголовный Кодекс; Россия
10278930,В Ленинградской области по «горячим» следам задержаны подозреваемые в разбойном нападении на мужчину,2017-05-18 08:37:00,60.07623830000001,30.121383,ч.2 ст.162 (Разбой); Уголовный Кодекс; Россия
10271415,"В Петербурге задержан гражданин, ранивший подростка из травматического оружия",2017-05-17 10:28:00,59.99465499999999,30.315662,ч.1 ст.213 (Хулиганство); Уголовный Кодекс; Россия
10270123,В Невском районе патрульные полицейские задержали подозреваемого в покушении на квартирную кражу,2017-05-17 09:02:00,59.92215599999999,30.487288,ч.3 ст.30; Уголовный Кодекс; Россия
10270093,В Калининском районе Петербурга сотрудники полиции по «горячим» следам задержали подозреваемых в разбое в гипермаркете,2017-05-17 08:53:00,59.9855556,30.4131298,ч.2 ст.162 (Разбой); Уголовный Кодекс; Россия
10270077,Расследуется разбойное нападение на водителя троллейбуса в Петроградском районе Петербурга,2017-05-17 08:50:00,59.96171099999999,30.314925,ч.2 ст.162 (Разбой); Уголовный Кодекс; Россия
10270073,В Кингисеппском районе Ленинградской области раскрыто разбойное нападение,2017-05-17 08:47:00,60.07623830000001,30.121383,ч.3 ст.162 (Разбой); Уголовный Кодекс; Россия
10261375,Полиция расследует обстоятельства разбойного нападения в Ленинградской области,2017-05-16 08:40:00,60.07623830000001,30.121383,ч.3 ст.162 (Разбой); Уголовный Кодекс; Россия
10258504,В ресторане в Санкт-Петербурге выявили факт нарушения миграционного законодательства,2017-05-15 17:13:00,59.936643,30.3220457,ст.18.15 (Незаконное Привлечение к Трудовой Деятельности в Российской Федерации Иностранного Гражданина Или Лица...); Кодекс Об Административных Правонарушениях; Россия
10258000,В Невском районе полицией пресечена деятельность притона для занятий проституцией,2017-05-15 16:15:00,59.91203509999999,30.4761708,ст.6.11 (Занятие Проституцией); Кодекс Об Административных Правонарушениях; Россия
10252947,В Выборгском районе Петербурга оперативники уголовного розыска раскрыли квартирный грабеж,2017-05-15 09:02:00,60.038523,30.3255632,ч.2 ст.161 (Грабеж); Уголовный Кодекс; Россия
10247872,Полиция задержала подозреваемых в разбойных нападениях на граждан в Красногвардейском районе,2017-05-13 11:52:00,59.94599369999999,30.4803755,ч.2 ст.162 (Разбой); Уголовный Кодекс; Россия
10247702,Полицейские задержали подозреваемую в краже дорогостоящего мобильного телефона у студентки,2017-05-13 11:41:00,59.8726867,30.3822783,ч.2 ст.158 (Кража); Уголовный Кодекс; Россия
10247664,В Красногвардейском районе задержан подозреваемый в разбойном нападении на магазин,2017-05-13 11:05:00,59.947658,30.502792,ч.2 ст.162 (Разбой); Уголовный Кодекс; Россия
10247591,В Красносельском районе полиция задержала подозреваемого в разбойном нападении на магазин,2017-05-13 10:21:00,59.818654,30.178146,ч.2 ст.162 (Разбой); Уголовный Кодекс; Россия
10247437,"В Петербурге задержан гражданин, у которого изъята партия наркотиков",2017-05-13 09:59:00,59.9910905,30.3049069,ч.2 ст.228 (Незаконное Хранение Наркотических Средств в Крупном Размере); Уголовный Кодекс; Россия
10239874,"В Московском районе Петербурга разыскиваются злоумышленники, совершившие грабеж в магазине",2017-05-12 08:58:00,59.85886499999999,30.3152639,ч.2 ст.161 (Грабеж); Уголовный Кодекс; Россия
10231112,В Адмиралтейском районе Петербурга закрыт притон по оказанию интимных услуг,2017-05-11 10:35:00,59.9176492,30.2782444,ст.6.11 (Занятие Проституцией); Кодекс Об Административных Правонарушениях; Россия
10229704,В Выборгском районе Петербурга сотрудники полиции по «горячим» следам задержали подозреваемых в дерзком ограблении,2017-05-11 08:50:00,60.0633867,30.3446587,ч.2 ст.161 (Грабеж); Уголовный Кодекс; Россия
10229594,Полицией раскрыта серия карманных краж в центре Петербурга,2017-05-11 08:42:00,59.93634129999999,30.3227933,ч.2 ст.158 (Кража); Уголовный Кодекс; Россия
10219619,В Выборгском районе Ленобласти полиция расследует разбойное нападение на магазин,2017-05-10 09:18:00,60.09884969999999,30.2285627,ч.2 ст.162 (Разбой); Уголовный Кодекс; Россия
10204644,"В Красносельском районе задержан гражданин, числящийся в федеральном розыске",2017-05-07 10:13:00,60.07623830000001,30.121383,ч.4 ст.159 (Мошенничество); Уголовный Кодекс; Россия
10186448,Сотрудники полиции раскрыли январский уличный разбой в Московском районе,2017-05-05 09:23:00,59.85525870000001,30.3380586,ч.2 ст.162 (Разбой); Уголовный Кодекс; Россия
10186364,Полицейские Адмиралтейского района оперативно вернули владельцу угнанный автомобиль,2017-05-05 09:15:00,59.90910339999999,30.3155489,ч.1 ст.166 (Неправомерное Завладение Транспортным Средством Без Цели Хищения); Уголовный Кодекс; Россия
10182063,Во Фрунзенском районе полиция изъяла из незаконного оборота алкоголь,2017-05-04 17:39:00,59.8596516,30.3928844,ч.2 ст.14.1 (Осуществление Предпринимательской Деятельности Без Государственной Регистрации Или Без Специального Разрешения...); Кодекс Об Административных Правонарушениях
10181995,В Невском районе Петербурга закрыт притон по оказанию интим-услуг,2017-05-04 17:35:00,59.875362,30.433835,ст.6.11 (Занятие Проституцией); Кодекс Об Административных Правонарушениях; Россия
10174960,Полицейскими проведен рейд на выявление нарушений в сфере миграции,2017-05-04 10:14:00,60.07623830000001,30.121383,ст.18.8 (Нарушение Иностранным Гражданином Правил Въезда Либо Режима Пребывания в Российской Федерации); Кодекс Об Административных Правонарушениях; Россия
10162206,"В Приозерске перед судом предстанет гражданка, у которой изъяли крупную партию психотропного вещества",2017-05-03 08:37:00,60.07623830000001,30.121383,ч.2 ст.228 (Незаконное Хранение Наркотических Средств и Психотропных Веществ); Уголовный Кодекс; Россия
10152012,В Красносельском районе задержан подозреваемый в незаконном хранении наркотиков,2017-05-02 08:47:00,59.86606,30.244197,ч.2 ст.228 (Незаконное Хранение Наркотических Средств в Крупном Размере); Уголовный Кодекс; Россия
10149672,В двух районах Петербурга пресечены факты незаконного размещения торговых объектов,2017-05-01 12:02:00,60.0508544,30.3318724,ст.7.1 (Самовольное Занятие Земельного Участка); Кодекс Об Административных Правонарушениях; Россия
10147741,"Сотрудники полиции разыскивают злоумышленника, повредившего в иномарку в Выборгском районе Петербурга",2017-04-30 13:02:00,60.062682,30.318351,ч.1 ст.213 (Хулиганство); Уголовный Кодекс; Россия
10135285,В Калининском районе Петербурга изъято более тысячи контрафактных товаров,2017-04-28 09:51:00,60.03621219999999,30.4190846,ст.14.10 (Незаконное Использование Средств Индивидуализации Товаров); Кодекс Об Административных Правонарушениях; Россия
10134860,"В Выборгском районе Петербурга задержан мужчина, находящийся в розыске",2017-04-28 09:17:00,60.0412356,30.3182296,ч.4 ст.159 (Мошенничество); Уголовный Кодекс; Россия
10134820,В Адмиралтейском районе Санкт-Петербурга раскрыта серия краж,2017-04-28 09:15:00,59.9149391,30.2995013,ч.2 ст.158 (Кража); Уголовный Кодекс; Россия
10134672,"В Красногвардейском районе разыскиваются злоумышленники, совершившие грабеж в коммунальной квартире",2017-04-28 09:01:00,59.9342802,30.3350986,ч.2 ст.161 (Грабеж); Уголовный Кодекс; Россия
10122252,Во Фрунзенском районе Петербурга полицейские задержали наркосбытчика,2017-04-27 10:00:00,59.846098,30.386202,ч.2 ст.228 (Хранение Наркотических Средств и Психотропных Веществ); Уголовный Кодекс; Россия
10121909,В Невском районе из незаконного оборота изъято около 600 пар контрафактной обуви,2017-04-27 09:41:00,59.85444940000001,30.4811482,ст.14.10 (Незаконное Использование Средств Индивидуализации Товаров); Кодекс Об Административных Правонарушениях; Россия
10116406,Полицией в Центральном районе закрыт притон по оказанию интимных услуг,2017-04-26 16:44:00,59.94085459999999,30.3563743,ст.6.11 (Занятие Проституцией); Кодекс Об Административных Правонарушениях; Россия
10112232,В Санкт-Петербурге раскрыто убийство 13-летней давности,2017-04-26 12:08:00,59.9535494,30.4082735,ч.1 ст.105 (Убийство); Уголовный Кодекс; Россия
10109981,Полицией раскрыта карманная кража у пассажира автобуса в Выборгском районе Петербурга,2017-04-26 09:09:00,60.051156,30.339779,ч.2 ст.158 (Кража); Уголовный Кодекс; Россия
10109769,Полицейские задержали подозреваемого в «телефонном терроризме»,2017-04-26 08:45:00,59.8959696,30.2812453,ст.207; Уголовный Кодекс; Россия
10101253,В центре Санкт-Петербурга сотрудники ГУ МВД России провели рейд на соблюдение миграционного законодательства,2017-04-25 10:00:00,59.94279029999999,30.3603416,ч.3 ст.18.8; Кодекс Об Административных Правонарушениях; Россия
10101147,В Невском районе по горячим следам полицейские задержали автоугонщика,2017-04-25 09:52:00,59.8973005,30.4903724,ч.3 ст.158 (Кража); Уголовный Кодекс; Россия
10100514,Раскрыто разбойное нападение на девочку-подростка в поселке Металлострой,2017-04-25 08:54:00,60.07623830000001,30.121383,ч.2 ст.162 (Разбой); Уголовный Кодекс; Россия
10100345,Полиция расследует ограбление магазина молочных продуктов в Выборгском районе Петербурга,2017-04-25 08:40:00,60.0187979,30.3210006,ч.2 ст.161 (Грабеж); Уголовный Кодекс; Россия
10100308,В Санкт-Петербурге сотрудники полиции с поличным задержали вора-«карманника»,2017-04-25 08:36:00,60.07623830000001,30.121383,ч.2 ст.158 (Кража); Уголовный Кодекс; Россия
10097108,В Санкт-Петербурге выявлены нарушения в сфере торговли и размещения рекламы,2017-04-24 16:54:00,59.85444940000001,30.4811482,ст.14.10 (Незаконное Использование Средств Индивидуализации Товаров); Кодекс Об Административных Правонарушениях; Россия
10094021,Задержан подозреваемый в совершении преступления сексуального характера в отношении несовершеннолетней,2017-04-24 12:40:00,59.854625,30.381646,п.А ч.3 ст.131 (Изнасилование); Уголовный Кодекс; Россия
10089273,В Гатчинском районе по горячим следам задержан угонщик,2017-04-23 15:00:00,60.07623830000001,30.121383,ч.1 ст.166 (Неправомерное Завладение Автомобилем Без Цели Хищения); Уголовный Кодекс; Россия
10088643,"В Красногвардейском районе задержан мужчина, подозреваемый в краже",2017-04-23 10:37:00,59.9366896,30.40356719999999,ч.2 ст.158 (Кража); Уголовный Кодекс; Россия
10088632,В Санкт-Петербурге задержаны подозреваемые в краже автомобиля,2017-04-23 10:34:00,59.8315356,30.2001935,ст.158.1 (Кража); Уголовный Кодекс; Россия
10088387,В Центральном районе Петербурга полицейские задержали подозреваемого в ложном минировании,2017-04-23 08:34:00,59.925518,30.358066,ч.1 ст.207; Уголовный Кодекс; Россия
10086853,В Красногвардейском районе задержан подозреваемый в незаконном хранении боеприпасов,2017-04-22 14:05:00,59.95771499999999,30.42451399999999,"ч.1 ст.222 (Незаконные Приобретение, Передача, Сбыт, Хранение, Перевозка Или Ношение Оружия, Его Основных Частей...); Уголовный Кодекс; Россия"
10086053,"В Санкт-Петербурге задержан гражданин, находящийся в федеральном розыске",2017-04-22 10:41:00,59.8625017,30.33487569999999,ч.4 ст.158 (Кража); Уголовный Кодекс; Россия
10077656,В Петербурге полиция ликвидировала подпольное казино,2017-04-21 11:20:00,59.9212855,30.3549776,ч.2 ст.171.2 (Незаконные Организация и Проведение Азартных Игр); Уголовный Кодекс; Россия
10078155,В Выборге сотрудники полиции задержали наркосбытчика,2017-04-21 09:57:00,60.07623830000001,30.121383,ч.5 ст.228.1 (Незаконный Сбыт Наркотических Средств и Психотропных Веществ); Уголовный Кодекс; Россия
10077474,В Невском районе раскрыто разбойное нападение на мужчину,2017-04-21 09:06:00,59.8513439,30.466393,ч.2 ст.162 (Разбой); Уголовный Кодекс; Россия
10077298,Петербуржец изобличен в сбыте поддельных денег,2017-04-21 08:56:00,59.83623319999999,30.37977,"ч.1 ст.186 (Изготовление, Хранение, Перевозка Или Сбыт Поддельных Денег Или Ценных Бумаг); Уголовный Кодекс; Россия"
10054012,В Кировском районе Петербурга полиция изъяла у гражданина оружие времен войны,2017-04-18 15:29:00,59.85130999999999,30.26351,"ч.1 ст.222 (Незаконные Приобретение, Передача, Сбыт, Хранение, Перевозка Или Ношение Оружия, Его Основных Частей...); Уголовный Кодекс; Россия"
9956224,Возбуждено уголовное дело о подделке идентификационного номера иномарки,2017-04-17 10:16:00,59.98507889999999,30.3901857,ч.1 ст.326 (Подделка Или Уничтожение Идентификационного Номера Транспортного Средства); Уголовный Кодекс; Россия
9944491,Во Фрунзенском районе Петербурга полиция расследует разбойное нападение на салон связи,2017-04-17 08:50:00,59.856508,30.378733,ч.2 ст.162 (Разбой); Уголовный Кодекс; Россия
9892847,"Возбуждено уголовное дело по факту ДТП в Тосненском районе, в котором пострадали 18 человек",2017-04-15 10:33:00,60.07623830000001,30.121383,ч.1 ст.264; Уголовный Кодекс; Россия
9892807,"В Адмиралтейском районе задержан гражданин, находящийся в федеральном розыске",2017-04-15 10:14:00,59.92626199999999,30.318348,ч.2 ст.158 (Кража); Уголовный Кодекс; Россия
9886126,Выявлен ряд нарушений в сфере торговли и размещения рекламы в Санкт-Петербурге,2017-04-14 11:50:00,59.848792,30.391312,ст.14.10 (Незаконное Использование Средств Индивидуализации Товаров); Кодекс Об Административных Правонарушениях; Россия
9883779,В Невском районе Петербурга раскрыто разбойное нападение на случайного прохожего,2017-04-14 08:56:00,59.87451,30.434811,ч.2 ст.162 (Разбой); Уголовный Кодекс; Россия
9883553,По «горячим» следам полицейские раскрыли кражу из коммунальной квартиры в Приморском районе,2017-04-14 08:25:00,59.98648719999999,30.2248216,ч.2 ст.158 (Кража); Уголовный Кодекс; Россия
9878975,В Невском районе Петербурга закрыт притон по оказанию интим-услуг,2017-04-13 15:15:00,59.89226000000001,30.437109,ст.6.11 (Занятие Проституцией); Кодекс Об Административных Правонарушениях; Россия
9875142,В Выборгском районе Санкт-Петербурга раскрыт уличный грабеж двухлетней давности,2017-04-13 09:31:00,60.056981,30.331881,ч.2 ст.161 (Грабеж); Уголовный Кодекс; Россия
9875004,В Санкт-Петербурге раскрыто дерзкое преступление в отношении троих жителей Выборгского района,2017-04-13 09:20:00,60.04603660000001,30.3450035,ч.4 ст.162 (Разбой); Уголовный Кодекс; Россия
9874788,"В Санкт-Петербурге задержан гражданин, находящийся в федеральном розыске",2017-04-13 09:05:00,60.07623830000001,30.121383,ч.2 ст.163 (Вымогательство); Уголовный Кодекс; Россия
9867350,"Полиция Санкт-Петербурга разыскивает двух женщин, похитивших деньги у пенсионерки",2017-04-12 10:38:00,59.854616,30.29662,ч.2 ст.158 (Кража); Уголовный Кодекс; Россия
9866802,"В Санкт-Петербурге задержаны двое мужчин, находящихся в розыске",2017-04-12 10:02:00,60.07623830000001,30.121383,ч.1 ст.119 (Угроза Убийством Или Причинением Тяжкого Вреда Здоровью); Уголовный Кодекс; Россия
9866229,В Красносельском районе Петербурга полицейские задержали двух «карманников»,2017-04-12 09:21:00,59.8533509,30.2200454,ч.2 ст.158 (Кража); Уголовный Кодекс; Россия
9865967,В Адмиралтейском районе Петербурга полицией раскрыто ограбление 17-летнего подростка,2017-04-12 08:57:00,59.92476600000001,30.3170674,ч.1 ст.161 (Грабеж); Уголовный Кодекс; Россия
9861907,В ходе рейда в Невском районе полицейские выявили нарушения миграционного законодательства,2017-04-11 15:37:00,60.07623830000001,30.121383,ст.18.8; Кодекс Об Административных Правонарушениях; Россия
9858575,В Ленобласти полицией выявлен ряд нарушений в сфере предпринимательской деятельности,2017-04-11 10:24:00,59.8395861,30.0192224,ч.2 ст.14.1 (Осуществление Предпринимательской Деятельности Без Государственной Регистрации Или Без Специального Разрешения...); Кодекс Об Административных Правонарушениях; Россия
9858796,"По «горячим» следам задержан злоумышленник, нанесший травмы 10-летнему мальчику",2017-04-11 10:15:00,59.991868,30.30970199999999,п.А ч.1 ст.213 (Хулиганство); Уголовный Кодекс; Россия
9857800,Проводится проверка по факту получения травм сотрудником полиции,2017-04-11 09:24:00,60.07623830000001,30.121383,ст.20.1 (Мелкое Хулиганство); Кодекс Об Административных Правонарушениях; Россия
9857592,"Полицейские задержали жителя Новосибирска, совершившего карманную кражу в Петербурге",2017-04-11 09:02:00,60.028004,30.412638,ч.2 ст.158 (Кража); Уголовный Кодекс; Россия
9857511,В Центральном районе по «горячим» следам раскрыто разбойное нападение на случайного прохожего,2017-04-11 08:54:00,59.923821,30.33587199999999,ч.1 ст.162 (Разбой); Уголовный Кодекс; Россия
9849663,В Пушкинском районе Санкт-Петербурга полицейские раскрыли квартирную кражу,2017-04-10 09:25:00,59.84434760000001,30.3224837,ч.3 ст.158 (Кража); Уголовный Кодекс; Россия
9849547,По «горячим» следам раскрыта карманная кража у посетительницы торгового центра,2017-04-10 09:11:00,59.9269531,30.3589114,ч.2 ст.158 (Кража); Уголовный Кодекс; Россия
9849459,На Васильевском острове в Петербурге полицией раскрыт уличный разбой,2017-04-10 08:56:00,59.95359899999999,30.2202,ч.2 ст.162 (Разбой); Уголовный Кодекс; Россия
9837831,В Петербурге задержаны подозреваемые в незаконном обороте наркотиков,2017-04-07 11:26:00,59.8626115,30.3231985,ч.3 ст.228.1 (Незаконный Оборот Наркотических Средств); Уголовный Кодекс; Россия
9836935,В Петербурге и Ленинградской области задержаны два автоугонщика,2017-04-07 10:22:00,60.07623830000001,30.121383,ч.2 ст.158 (Кража); Уголовный Кодекс; Россия
9836210,"Полицейские задержали гражданина, который может быть причастен к серии автоугонов",2017-04-07 09:23:00,60.00648249999999,30.2084125,ч.3 ст.158 (Кража); Уголовный Кодекс; Россия
9827751,"Полицией Петербурга по ""горячим"" следам раскрыта квартирная кража",2017-04-06 10:02:00,59.97173300000001,30.384,ч.3 ст.158 (Кража); Уголовный Кодекс; Россия
9827413,"В Санкт-Петербурге задержаны двое мужчин, находящихся в розыске",2017-04-06 09:31:00,60.00476499999999,30.221558,ч.3 ст.228.1 (Незаконный Оборот Наркотических Средств и Психотропных Веществ); Уголовный Кодекс; Россия
9827207,В Московском районе Петербурга полиция расследует грабеж в отношении 92-летнего пенсионера,2017-04-06 09:08:00,59.841711,30.311894,ч.2 ст.161 (Грабеж); Уголовный Кодекс; Россия
9819296,Полицейские вернули 16-летней петербурженке похищенный смартфон,2017-04-05 09:49:00,59.84260699999999,30.268626,ч.2 ст.158 (Кража); Уголовный Кодекс; Россия
9819134,Полицией раскрыта кража иномарки в Невском районе Санкт-Петербурга,2017-04-05 09:35:00,59.837415,30.5063785,ч.2 ст.158 (Кража); Уголовный Кодекс; Россия
9815687,В Ленобласти наркодилер предстанет перед судом,2017-04-04 16:32:00,60.07623830000001,30.121383,ч.1 ст.228.1 (Незаконный Сбыт Наркотических Средств и Психотропных Веществ); Уголовный Кодекс; Россия
9804629,В Красносельском районе Петербурга раскрыт ноябрьский автоугон,2017-04-03 11:52:00,59.830984,30.176738,ч.3 ст.158 (Кража); Уголовный Кодекс; Россия
9796312,"В Красносельском районе задержан гражданин, подозреваемый в подделке документов",2017-04-01 10:30:00,59.836487,30.144569,"ч.3 ст.327 (Подделка, Изготовление Или Сбыт Поддельных Документов); Уголовный Кодекс; Россия"
9789120,В Красногвардейском районе Санкт-Петербурга в результате погони инспекторы ГИБДД задержали автоугонщика,2017-03-31 10:36:00,59.974217,30.4150226,ч.3 ст.158 (Кража); Уголовный Кодекс; Россия
9777842,Полиция возбудила уголовное дело по факту повреждения имущества «коллекторами»,2017-03-30 08:42:00,59.89610099999999,30.417108,ч.1 ст.167 (Умышленные Уничтожение Или Повреждение Имущества); Уголовный Кодекс; Россия
9769494,"В Санкт-Петербурге задержаны двое мужчин, находящихся в розыске",2017-03-29 09:25:00,60.0359131,30.3947846,ст.18.8 (Нарушение Иностранным Гражданином Или Лицом Без Гражданства Правил Въезда в Российскую Федерацию Либо...); Кодекс Об Административных Правонарушениях; Россия
9769219,"В Санкт-Петербурге задержаны злоумышленники, незаконно сбывшие наркотики подросткам",2017-03-29 09:03:00,59.8541034,30.1423096,ч.1 ст.228.1 (Незаконный Оборот Наркотических Средств и Психотропных Веществ); Уголовный Кодекс; Россия
9761104,Во Фрунзенском районе полицией раскрыты три кражи,2017-03-28 10:51:00,59.83238,30.382551,ч.2 ст.158; Уголовный Кодекс; Россия
9759830,"Водитель маршрутки, совершивший ДТП во Всеволожском районе, привлечен к уголовной ответственности",2017-03-28 09:15:00,60.07623830000001,30.121383,ч.3 ст.264; Уголовный Кодекс; Россия
9759482,В Санкт-Петербурге сотрудники полиции пресекли попытку незаконного сбыта крупной партии наркотиков,2017-03-28 08:46:00,59.9580783,30.3064235,ч.3 ст.30; Уголовный Кодекс; Россия
9754873,В Московском районе Петербурга закрыт притон по оказанию интим-услуг,2017-03-27 14:29:00,59.8600067,30.3187359,ст.6.11 (Занятие Проституцией); Кодекс Об Административных Правонарушениях; Россия
9750458,В Петербурге по «горячим» следам задержан автоугонщик,2017-03-27 09:32:00,59.93223090000001,30.326987,ч.3 ст.158 (Кража); Уголовный Кодекс; Россия
9750433,Возбуждено уголовное дело по факту незаконного оборота наркотиков,2017-03-27 09:30:00,59.8541034,30.1423096,ч.1 ст.228.1 (Незаконный Оборот Наркотических Средств и Психотропных Веществ); Уголовный Кодекс; Россия
9750346,В Выборгском районе полицейские задержали подозреваемого в краже у пассажирки троллейбуса,2017-03-27 09:22:00,60.036896,30.365006,ч.2 ст.158 (Кража); Уголовный Кодекс; Россия
9750162,Полицией раскрыто ограбление цветочного магазина во Фрунзенском районе Петербурга,2017-03-27 09:09:00,59.83764869999999,30.3907497,ч.2 ст.161 (Грабеж); Уголовный Кодекс; Россия
9746625,В Приморском районе задержаны подозреваемые в угоне автомобиля,2017-03-26 09:41:00,59.98844099999999,30.20169,п.В ч.2 ст.158 (Кража); Уголовный Кодекс; Россия
9744444,"В Санкт-Петербурге задержаны двое граждан, находящихся в федеральном розыске",2017-03-25 13:01:00,59.7374501,30.4060299,ст.91; Уголовно-Процессуальный Кодекс; Россия
9743935,В Калининском районе задержана подозреваемая в разбойном нападении,2017-03-25 10:58:00,59.976009,30.395652,ч.2 ст.162 (Разбой); Уголовный Кодекс; Россия
9743884,В Невском районе задержан подозреваемый в незаконном хранении партии наркотиков,2017-03-25 10:21:00,59.9264057,30.435419,"ч.2 ст.228 (Незаконные Приобретение, Хранение, Перевозка, Изготовление, Переработка Наркотических Средств, Психотропных...); Уголовный Кодекс; Россия"
9736653,Полиция расследует кражу денег у пожилой петербурженки,2017-03-24 12:00:00,59.9259165,30.4093213,ч.3 ст.158 (Кража); Уголовный Кодекс; Россия
9734233,В Калининском районе Петербурга полиция расследует квартирный грабеж,2017-03-24 09:04:00,60.025927,30.367238,ч.1 ст.161 (Грабеж); Уголовный Кодекс; Россия
9724559,Полицейские изъяли крупную партию «синтетики» у жителя Петербурга,2017-03-23 09:03:00,59.82799799999999,30.1932036,ч.3 ст.30; Уголовный Кодекс; Россия
9715729,В Курортном районе полицией раскрыта кража у пожилой женщины в библиотеке,2017-03-22 09:55:00,60.0880531,29.9559262,ч.2 ст.158 (Кража); Уголовный Кодекс; Россия
9715022,"В Выборгском районе Петербурга задержан автоугонщик, находящийся в федеральном розыске",2017-03-22 09:14:00,60.07623830000001,30.121383,ч.1 ст.166 (Неправомерное Завладение Автотранспортом Или Иным Транспортным Средством Без Цели Хищение); Уголовный Кодекс; Россия
9706926,"В Санкт-Петербурге полицейские задержали злоумышленника, сообщившего о якобы бомбе в жилом доме",2017-03-21 10:09:00,60.0461933,30.3508592,ст.207; Уголовный Кодекс; Россия
9706217,В Московском районе выясняются обстоятельства дерзкого квартирного грабежа,2017-03-21 09:17:00,59.84050500000001,30.314811,ч.2 ст.161 (Грабеж); Уголовный Кодекс; Россия
9706139,В Кировском районе Петербурга полицией раскрыто ограбление 12-летнего школьника,2017-03-21 09:08:00,59.847987,30.24172799999999,ч.2 ст.161 (Грабеж); Уголовный Кодекс; Россия
9699762,В Ломоносове дорожными полицейскими задержан пьяный водитель-рецидивист,2017-03-20 13:06:00,59.8946013,29.7732652,"ч.1 ст.12.8 (Управление Транспортным Средством Водителем, Находящимся в Состоянии Опьянения); Кодекс Об Административных Правонарушениях; Россия"
9692745,В Петербурге по горячим следам задержан автоугонщик,2017-03-18 20:59:00,60.07623830000001,30.121383,ч.3 ст.12.8 (Управление Транспортным Средством в Состоянии Опьянения); Кодекс Об Административных Правонарушениях; Россия
9691281,"В Санкт-Петербурге сотрудниками полиции возбуждено уголовное дело в отношении женщины, оставившей ребенка в опасности",2017-03-18 13:50:00,59.840387,30.24855,ст.125 (Оставление в Опасности); Уголовный Кодекс; Россия
9690672,"В Ленинградской области полиция устанавливает обстоятельства пожара в магазине, в результате которого погибла женщина",2017-03-18 11:08:00,60.07623830000001,30.121383,"ч.2 ст.167 (Умышленные Уничтожение Или Повреждение Имущества, Путем Поджога Либо Повлекшие По Неосторожности Смерть...); Уголовный Кодекс; Россия"
9690592,"В Московском районе задержан гражданин, подозреваемый в краже",2017-03-18 10:52:00,59.84307899999999,30.32929,ст.91; Уголовно-Процессуальный Кодекс; Россия
9690534,В Невском районе задержан подозреваемый в незаконном хранении наркотиков,2017-03-18 10:39:00,59.8638108,30.4388249,ч.2 ст.228; Уголовный Кодекс; Россия
9690511,В Гатчинском районе раскрыт угон автомобиля,2017-03-18 10:38:00,60.07623830000001,30.121383,п.А ч.2 ст.158 (Кража); Уголовный Кодекс; Россия
9689259,В Петербурге нетрезвые автоледи и мотоциклист привлечены к уголовной ответственности,2017-03-18 09:00:00,59.85348500000001,30.090073,ч.1 ст.12.26 (Невыполнение Водителем Транспортного Средства Требования о Прохождении Медицинского Освидетельствования...); Кодекс Об Административных Правонарушениях; Россия
9686263,В ходе рейда полицейские выявили нарушения в сфере пассажирских перевозок,2017-03-17 15:02:00,60.2018426,29.7106194,ч.1 ст.11.14.1; Кодекс Об Административных Правонарушениях; Россия
9685317,В Адмиралтейском районе Петербурга закрыт очередной притон по оказанию интим-услуг,2017-03-17 13:53:00,59.92527500000001,30.3078318,ст.6.11 (Занятие Проституцией); Кодекс Об Административных Правонарушениях; Россия
9682451,В Санкт-Петербурге полицией раскрыта кража смартфона у пожилой пассажирки автобуса,2017-03-17 10:19:00,59.87485349999999,30.3909059,ч.2 ст.158 (Кража); Уголовный Кодекс; Россия
9681931,В Петербурге раскрыто разбойное нападение на случайного прохожего,2017-03-17 09:45:00,59.831842,30.348353,ч.2 ст.162 (Разбой); Уголовный Кодекс; Россия
9681735,"В Санкт-Петербурге задержаны трое граждан, подозреваемых в двух дерзких преступлениях",2017-03-17 09:23:00,60.07623830000001,30.121383,ч.2 ст.158 (Кража); Уголовный Кодекс; Россия
9676879,Возбуждено уголовное дело по факту аварии с автобусом в Выборгском районе,2017-03-16 16:08:00,60.07623830000001,30.121383,ч.5 ст.264; Уголовный Кодекс; Россия
9673760,В Выборге ликвидирован притон по оказанию услуг интимного характера,2017-03-16 12:23:00,60.07623830000001,30.121383,ст.6.11 (Занятие Проституцией); Кодекс Об Административных Правонарушениях; Россия
9671455,В Выборгском районе Петербурга с поличным задержан вор-«карманник»,2017-03-16 09:33:00,60.036388,30.324023,ч.2 ст.158 (Кража); Уголовный Кодекс; Россия
9671426,"В Петербурге и Ленобласти задержаны трое граждан, находящихся в розыске",2017-03-16 09:31:00,60.07623830000001,30.121383,ч.1 ст.314 (Злостное Уклонение Осужденного к Ограничению Свободы); Уголовный Кодекс; Россия
9671613,В Курортном районе задержан гражданин с наркотическим средством,2017-03-16 09:30:00,60.1229085,30.1520592,ч.2 ст.228 (Незаконное Хранение Наркотических Средств и Психотропных Веществ); Уголовный Кодекс; Россия
9671061,В Красногвардейском районе полицейские оперативно вернули владельцу похищенную иномарку,2017-03-16 09:01:00,59.945727,30.492123,ч.3 ст.158 (Кража); Уголовный Кодекс; Россия
9664176,"Полицейские задержали гражданина, занимавшегося кражами дорогих иномарок",2017-03-15 11:09:00,60.0324475,30.2381864,ч.4 ст.158 (Кража); Уголовный Кодекс; Россия
9662605,"Оперативники уголовного розыска задержали граждан, которые могут быть причастны к серии краж в Санкт-Петербурге",2017-03-15 09:06:00,60.050002,30.345796,ч.3 ст.158 (Кража с Незаконным Проникновением в Жилище); Уголовный Кодекс; Россия
9654966,В Колпино раскрыта кража у девушки-консультанта салона сотовой связи,2017-03-14 10:13:00,59.73743149999999,30.5694992,ч.2 ст.158 (Кража); Уголовный Кодекс; Россия
9649999,В Выборге задержан подозреваемый в попытке кражи из автомобиля,2017-03-13 16:14:00,60.1844419,29.8287158,ч.3 ст.30; Уголовный Кодекс; Россия
9649581,В Петродворцовом районе Петербурга у двух граждан изъяли наркотики,2017-03-13 15:39:00,59.871965,29.864012,ч.2 ст.228 (Незаконное Хранение Наркотических Средств и Психотропных Веществ); Уголовный Кодекс; Россия
9645293,В Ленинградской области полицией задержан автоугонщик,2017-03-13 10:02:00,60.07623830000001,30.121383,ч.1 ст.166 (Неправомерное Завладение Автомобилем Или Иным Транспортным Средством Без Цели Хищения); Уголовный Кодекс; Россия
9644743,В Санкт-Петербурге у гражданина изъята крупная партия наркотиков,2017-03-13 09:14:00,60.128648,30.1600391,ч.3 ст.30; Уголовный Кодекс; Россия
9639982,Задержана подозреваемая в разбойном нападении на водителя,2017-03-11 11:05:00,60.07623830000001,30.121383,ч.2 ст.162 (Разбой); Уголовный Кодекс; Россия
9637147,В Петербурге полицией закрыты два притона по оказанию интим-услуг,2017-03-10 15:36:00,60.0292025,30.3301733,ст.6.11 (Занятие Проституцией); Кодекс Об Административных Правонарушениях; Россия
9631937,"Сотрудники полиции разыскивают злоумышленника, ранившего и избившего мужчину в Невском районе",2017-03-10 08:02:00,59.85452,30.469388,ч.2 ст.213 (Хулиганство); Уголовный Кодекс; Россия
9627315,В Московском районе Санкт-Петербурга в результате погони задержан злостный нарушитель ПДД,2017-03-09 14:02:00,59.8512725,30.3203997,ч.1 ст.12.26 (Невыполнение Водителем Транспортного Средства Требования о Прохождении Медицинского Освидетельствования...); Кодекс Об Административных Правонарушениях; Россия
9624398,В Центральном районе Санкт-Петербурга пресечена деятельность притона для занятий проституцией,2017-03-09 10:38:00,59.932201,30.34945299999999,ст.6.11 (Занятие Проституцией); Кодекс Об Административных Правонарушениях; Россия
9623181,Устанавливаются обстоятельства кражи дорогой иномарки в Центральном районе,2017-03-09 09:58:00,59.9364036,30.3396139,ч.4 ст.158 (Кража); Уголовный Кодекс; Россия
9612161,В Невском районе Петербурга пресечены факты незаконного размещения торговых объектов,2017-03-07 14:54:00,59.918896,30.470066,ст.7.1 (Самовольное Занятие Земельного Участка); Кодекс Об Административных Правонарушениях; Россия
9608714,В Санкт-Петербурге раскрыта серия мошенничеств в отношении пожилых граждан,2017-03-07 11:42:00,59.9045822,30.473223,ч.4 ст.159 (Мошенничество); Уголовный Кодекс; Россия
9607229,"Полицейские задержали автоугонщика, который может быть причастен к серии преступлений",2017-03-07 10:33:00,59.917705,30.468676,ч.2 ст.158 (Кража); Уголовный Кодекс; Россия
9605879,В Выборгском районе Петербурга задержан подозреваемый в мошенничестве в отношении подростка,2017-03-07 10:03:00,60.05850100000001,30.338184,ч.2 ст.159 (Мошенничество); Уголовный Кодекс; Россия
9605803,В Выборгском районе Петербурга раскрыт грабеж в отношении несовершеннолетнего,2017-03-07 09:30:00,60.05706900000001,30.329447,ч.2 ст.161 (Грабеж); Уголовный Кодекс; Россия
9594727,В городе Тихвине Ленобласти инспекторы ГИБДД задержали двух автоугонщиков,2017-03-06 09:49:00,60.07623830000001,30.121383,ч.1 ст.166 (Неправомерное Завладение Автомобилем Или Иным Транспортным Средством Без Цели Хищения); Уголовный Кодекс; Россия
9594664,В Ленобласти полицейские задержали четверых наркосбытчиков,2017-03-06 09:43:00,60.07623830000001,30.121383,ч.4 ст.228.1; Уголовный Кодекс; Россия
9591087,В Ленинградской области задержаны подозреваемые в разбойном нападении на школьника,2017-03-05 10:14:00,60.07623830000001,30.121383,ч.2 ст.162 (Разбой); Уголовный Кодекс; Россия
9585063,Водитель неисправного автобуса привлечен к уголовной ответственности,2017-03-03 16:22:00,60.07623830000001,30.121383,"ч.1 ст.238 (Выполнение Работ Или Оказание Услуг, Не Отвечающих Требованиям Безопасности Жизни Или Здоровья Потребителей); Уголовный Кодекс; Россия"
9583542,В Московском районе Петербурга закрыт притон для занятий проституцией,2017-03-03 13:58:00,59.872056,30.329972,ст.6.11 (Занятие Проституцией); Кодекс Об Административных Правонарушениях; Россия
9581169,Полицией раскрыта серия краж большегрузных автомобилей,2017-03-03 11:00:00,60.0388938,30.24346199999999,ч.4 ст.158 (Кража); Уголовный Кодекс; Россия
9580541,Возбуждено уголовное дело в отношении лишенного водительских прав автомобилиста - за повторную езду в нетрезвом состоянии,2017-03-03 10:14:00,60.07623830000001,30.121383,ст.264.1; Уголовный Кодекс; Россия
9580220,Во Фрунзенском районе задержан подозреваемый в серии преступлений сексуального характера,2017-03-03 09:39:00,60.07623830000001,30.121383,ч.2 ст.161 (Разбой); Уголовный Кодекс; Россия
9579988,В Петербурге полицией задержана подозреваемая в мошенничестве,2017-03-03 09:18:00,59.87290840000001,30.3200098,ч.2 ст.159 (Мошенничество); Уголовный Кодекс; Россия
9571708,В Ленобласти задержан подозреваемый в краже мобильного телефона,2017-03-02 09:59:00,60.07623830000001,30.121383,ч.2 ст.158 (Кража); Уголовный Кодекс; Россия
9571691,В городе Тихвине задержан подозреваемый в краже из помещения фирмы,2017-03-02 09:58:00,60.07623830000001,30.121383,ч.2 ст.158 (Кража); Уголовный Кодекс; Россия
9571434,Полицией раскрыта октябрьская кража фургона в Волосово,2017-03-02 09:40:00,60.07623830000001,30.121383,ч.2 ст.158 (Кража); Уголовный Кодекс; Россия
9571409,"В Центральном районе Петербурга задержан гражданин, ранивший ножом мужчину",2017-03-02 09:37:00,60.07623830000001,30.121383,ч.1 ст.111 (Умышленное Причинение Тяжкого Вреда Здоровью); Уголовный Кодекс; Россия
9563970,"В Ленобласти задержан сотрудник студии красоты, совершивший разбойное нападение на подростка",2017-03-01 11:49:00,60.07623830000001,30.121383,ст.228 (Хранение Наркотических Средств и Психотропных Веществ); Уголовный Кодекс; Россия
9562870,Полицией Петроградского района раскрыта кража компьютерной техники из двух офисов в бизнес-центре,2017-03-01 10:30:00,59.9719877,30.2982206,ст.158 (Кража); Уголовный Кодекс; Россия
9562132,В Московском районе Петербурга полицейские задержали автоугонщика,2017-03-01 09:36:00,60.07623830000001,30.121383,ч.2 ст.158 (Кража); Уголовный Кодекс; Россия
9558223,В Ленобласти полицейские раскрыли январскую квартирную кражу,2017-02-28 16:43:00,60.07623830000001,30.121383,ч.3 ст.158 (Кража); Уголовный Кодекс; Россия
9553751,В Колпино задержан подозреваемый в мошенничестве,2017-02-28 10:33:00,59.73421099999999,30.61210789999999,ч.2 ст.159 (Мошенничество); Уголовный Кодекс; Россия
9539668,"В Санкт-Петербурге полиция задержала двух граждан, подозреваемых в незаконном обороте наркотиков",2017-02-26 09:45:00,59.8878292,30.4930993,"ч.3 ст.228 (Незаконные Приобретение, Хранение, Перевозка, Изготовление, Переработка Наркотических Средств, Психотропных...); Уголовный Кодекс; Россия"
9537027,Полиция разыскивает подозреваемого в разбойном нападении на школьника во Всеволожском районе Ленинградской области,2017-02-25 10:30:00,60.07623830000001,30.121383,ч.2 ст.162 (Разбой); Уголовный Кодекс; Россия
9521284,В Невском районе Петербурга задержан подозреваемый в дерзком разбое,2017-02-22 10:35:00,59.9145489,30.4366771,ч.2 ст.162 (Разбой); Уголовный Кодекс; Россия
9520825,В Невском районе Петербурга раскрыто разбойное нападение на таксиста,2017-02-22 10:03:00,59.90888099999999,30.430584,ч.2 ст.162 (Разбой); Уголовный Кодекс; Россия
9519873,В Московском районе Петербурга полиция расследует разбойное нападение на автовладельца,2017-02-22 09:08:00,60.07623830000001,30.121383,ч.2 ст.162 (Разбой); Уголовный Кодекс; Россия
9515902,В Санкт-Петербурге задержан подозреваемый в преступлении сексуального характера в отношении несовершеннолетней,2017-02-21 16:01:00,59.9342802,30.3350986,ч.4 ст.132 (Насильственные Действия Сексуального Характера); Уголовный Кодекс; Россия
9511533,"Полиция разыскивает злоумышленника, подозреваемого в совершении преступления сексуального характера в отношении несовершеннолетней",2017-02-21 14:46:00,59.9342802,30.3350986,ч.4 ст.132 (Насильственные Действия Сексуального Характера); Уголовный Кодекс; Россия
9508785,Раскрыто разбойное нападение на таксиста в Невском районе Санкт-Петербурга,2017-02-21 09:13:00,59.8650547,30.4214587,ч.2 ст.162 (Разбой); Уголовный Кодекс; Россия
9509372,"В Санкт-Петерубрге полицией задержан подросток, избивший своего сверстника",2017-02-20 18:00:00,59.6842645,30.4412519,ч.2 ст.111 (Умышленное Причинение Тяжкого Вреда Здоровью); Уголовный Кодекс; Россия
9498850,Полицией раскрыта октябрьская кража иномарки в Шушарах,2017-02-20 09:10:00,59.8110245,30.3689351,ч.2 ст.158 (Кража); Уголовный Кодекс; Россия
9484940,В Санкт-Петербурге раскрыта серия квартирных краж почти на полмиллиона рублей,2017-02-17 09:30:00,59.85276,30.308088,"ч.3 ст.158 (Кража, Совершенная с Незаконным Проникновение в Жилище); Уголовный Кодекс; Россия"
9484922,В Кировском районе Петербурга с поличным задержан вор-«карманник»,2017-02-17 09:27:00,60.07623830000001,30.121383,ч.2 ст.158 (Кража); Уголовный Кодекс; Россия
9484751,"Злоумышленник, ограбивший 89-летнего жителя Бокситогорска, задержан",2017-02-17 09:11:00,60.07623830000001,30.121383,ч.2 ст.161 (Грабеж); Уголовный Кодекс; Россия
9473861,В двух районах Петербурга полицейские проверили соблюдение норм миграционного законодательства,2017-02-15 17:54:00,60.07623830000001,30.121383,ст.18.8 (Нарушение Иностранным Гражданином Или Лицом Без Гражданства Правил Въезда в Российскую Федерацию Либо...); Кодекс Об Административных Правонарушениях; Россия
9467283,В Санкт-Петербурге по «горячим» следам полицией раскрыта кража у пассажирки метро,2017-02-15 09:59:00,59.925408,30.318152,ч.2 ст.158 (Кража); Уголовный Кодекс; Россия
9466623,В Ленинградской области полиция расследует дерзкое ограбление 89-летнего местного жителя,2017-02-15 08:49:00,60.07623830000001,30.121383,ч.2 ст.161 (Грабеж); Уголовный Кодекс; Россия
9460841,"Полиция задержала двух граждан, подозреваемых в незаконном обороте наркотиков в особо крупном размере",2017-02-14 12:57:00,60.07623830000001,30.121383,ч.3; Уголовный Кодекс; Россия
9458856,В Приморском районе Петербурга задержан подозреваемый в «телефоном» терроризме,2017-02-14 10:04:00,60.07623830000001,30.121383,ч.1 ст.20.21 (Появление в Общественных Местах в Состоянии Опьянения); Кодекс Об Административных Правонарушениях; Россия
9452736,"В Адмиралтейском районе раскрыто убийство студента, труп которого был обнаружен в коммунальной квартире",2017-02-13 12:58:00,59.927163,30.3166514,ч.1 ст.105 (Убийство); Уголовный Кодекс; Россия
9450322,В Выборге возбуждено уголовное дело в отношении юного автоугонщика,2017-02-13 09:40:00,60.07623830000001,30.121383,ч.3 ст.30; Уголовный Кодекс; Россия
9449708,В Невском районе Санкт-Петербурга полицией раскрыты два грабежа в отношении прохожих,2017-02-13 09:20:00,59.86326399999999,30.498541,ч.2 ст.161 (Грабеж); Уголовный Кодекс; Россия
9449681,"Во Фрунзенском районе Петербурга задержан хулиган, повредивший иномарку местной жительницы",2017-02-13 09:18:00,59.85373599999999,30.3683634,ч.2 ст.167 (Умышленное Уничтожение Или Повреждение Имущества); Уголовный Кодекс; Россия
9443816,"В Центральном районе задержан подозреваемый, избивший своего знакомого",2017-02-11 09:32:00,59.9266949,30.3731629,ч.1 ст.111 (Умышленное Причинение Тяжкого Вреда Здоровью); Уголовный Кодекс; Россия
9436522,В Центральном районе Петербурга раскрыт грабеж в отношении несовершеннолетнего,2017-02-10 09:23:00,59.92438000000001,30.343219,ч.2 ст.161 (Грабеж); Уголовный Кодекс; Россия
9436440,Оперативники уголовного розыска задержали подозреваемых в ограблении магазина мясных товаров,2017-02-10 09:18:00,60.0545717,30.3293232,ч.2 ст.161 (Грабеж); Уголовный Кодекс; Россия
9436357,"Полиция Невского района разыскивает злоумышленников, напавших на таксиста",2017-02-10 09:12:00,59.8650547,30.4214587,ч.2 ст.162 (Разбой); Уголовный Кодекс; Россия
9436316,В Светогорске раскрыто разбойное нападение на девочку-подростка,2017-02-10 09:05:00,60.07623830000001,30.121383,ч.1 ст.162 (Разбой); Уголовный Кодекс; Россия
9430233,В Петербурге задержан мужчина с крупной партией наркотиков,2017-02-09 12:23:00,59.9119882,30.446392,ч.2 ст.228 (Хранение Наркотических Средств в Крупном Размере); Уголовный Кодекс; Россия
9428305,В Волховском районе Ленинградской области раскрыто жестокое убийство мужчины,2017-02-09 09:46:00,60.07623830000001,30.121383,ч.1 ст.105; Уголовный Кодекс; Россия
9428021,В Центральном районе Санкт-Петербурга пресечена незаконная продажа сим-карт,2017-02-09 09:21:00,59.944559,30.359799,ст.13.29 (Заключение Договора Об Оказании Услуг Подвижной Радиотелефонной Связи Неуполномоченным Лицом); Кодекс Об Административных Правонарушениях; Россия
9424875,В Калининском районе Петербурга закрыт притон для занятий проституцией,2017-02-08 16:34:00,60.00390849999999,30.3976813,ст.6.11 (Занятие Проституцией); Кодекс Об Административных Правонарушениях; Россия
9423280,В Кронштадте полицейские задержали троих автоугонщиков,2017-02-08 14:22:00,60.011504,29.723529,ч.3 ст.158 (Кража); Уголовный Кодекс; Россия
9422890,В Тихвине нетрезвая автоледи привлечена к уголовной ответственности,2017-02-08 13:53:00,60.07623830000001,30.121383,ст.264.1; Уголовный Кодекс; Россия
9420710,В Петродворцовом районе Санкт-Петербурга задержан автоугонщик,2017-02-08 11:44:00,59.8498768,30.0517238,ч.1 ст.166 (Неправомерное Завладение Транспортным Средством); Уголовный Кодекс; Россия
9419095,"В Калининском районе Петербурга разыскиваются преступники, совершившие дерзкий квартирный грабеж",2017-02-08 09:52:00,60.07623830000001,30.121383,ч.2 ст.161 (Грабеж); Уголовный Кодекс; Россия
9411923,В Петроградском районе раскрыты две кражи с закрытой парковки,2017-02-07 11:27:00,59.972452,30.296656,ч.1 ст.158; Уголовный Кодекс; Россия
9410855,Возбуждено уголовное дело по факту вовлечения несовершеннолетнего в совершение квартирной кражи,2017-02-07 09:59:00,60.005316,30.418217,ч.2 ст.158 (Кража); Уголовный Кодекс; Россия
9410197,"В Невском районе сотрудники полиции задержали мужчину, подозреваемого в грабеже",2017-02-07 09:01:00,59.84112399999999,30.488936,п.А ч.2 ст.161; Уголовный Кодекс; Россия
9410190,В Петербурге сотрудники полиции разыскивают подозреваемого в разбойном нападении,2017-02-07 09:00:00,60.00121799999999,30.3884581,ч.2 ст.162 (Разбой); Уголовный Кодекс; Россия
9403493,В Курортном районе Петербурга патрульные полицейские задержали гражданина с наркотиками,2017-02-06 11:05:00,60.1967148,29.7006916,ч.1 ст.228 (Незаконное Хранение Наркотических Средств и Психотропных Веществ); Уголовный Кодекс; Россия
9402315,В Светлогорске разыскивается подозреваемый в разбойном нападении на женщину,2017-02-06 09:48:00,60.07623830000001,30.121383,ч.2 ст.162 (Разбой); Уголовный Кодекс; Россия
9402267,В Приозерском районе проводится служебная проверка по факту причинения телесных повреждений сотруднику полиции,2017-02-06 09:43:00,60.07623830000001,30.121383,ч.1 ст.264; Уголовный Кодекс; Россия
9401705,В Ленинградской области устанавливаются обстоятельства пропажи фургона с олениной,2017-02-06 09:16:00,60.07623830000001,30.121383,ч.4 ст.158 (Кража); Уголовный Кодекс; Россия
9401462,В Московском районе Петербурга разыскивается подозреваемый в разбойном нападении на магазин,2017-02-06 08:54:00,59.9059034,30.3188866,ч.2 ст.162 (Разбой); Уголовный Кодекс; Россия
9399135,В Петродворцовом районе задержан подозреваемый в причинении тяжкого вреда здоровью,2017-02-05 10:56:00,59.8512137,30.0187254,ч.2 ст.111 (Умышленное Причинение Тяжкого Вреда Здоровью); Уголовный Кодекс; Россия
9399055,В Центральном районе устанавливаются обстоятельства ранения двоих граждан,2017-02-05 10:34:00,59.93580900000001,30.312622,ч.1 ст.213 (Хулиганство); Уголовный Кодекс; Россия
9392718,В Петербурге сотрудники ГАИ обнаружили в багажнике остановленной машины крупную партию марихуаны,2017-02-03 15:15:00,60.07623830000001,30.121383,ст.12.6 (Нарушение Правил Применения Ремней Безопасности Или Мотошлемов); Кодекс Об Административных Правонарушениях; Россия
9389556,В Выборгском районе Петербурга раскрыто ограбление салона сотовой связи,2017-02-03 10:01:00,60.0384275,30.3463,ч.3 ст.161 (Грабеж); Уголовный Кодекс; Россия
9389381,По «горячим» следам полицейские задержали подростка за жестокое нападение на петербурженку,2017-02-03 09:41:00,59.85792199999999,30.313467,ч.2 ст.162 (Разбой); Уголовный Кодекс; Россия
9387178,В Петродворцовом районе Санкт-Петербурга задержана подозреваемая в похищении ребенка,2017-02-02 19:01:00,59.85463470000001,30.0212893,п.Д ч.2 ст.126 (Похищение Человека); Уголовный Кодекс; Россия
9383250,В Московском районе Петербурга ликвидирован притон по оказанию интим-услуг,2017-02-02 12:15:00,59.8500993,30.3250107,ст.6.11 (Занятие Проституцией); Кодекс Об Административных Правонарушениях; Россия
9381900,В Петербурге полицией пресечена незаконная продажа табачной продукции,2017-02-02 10:11:00,59.998986,30.3654571,"ст.14.2 (Незаконная Продажа Товаров, Свободная Реализация Которых Запрещена Или Ограничена); Кодекс Об Административных Правонарушениях; Россия"
9381612,В Центральном районе раскрыта кража смартфона у посетительницы кафе,2017-02-02 09:42:00,59.935383,30.359796,ч.2 ст.158 (Кража); Уголовный Кодекс; Россия
9376300,Сотрудники полиции задержали подозреваемых в похищении человека с парковки торгового центра,2017-02-01 12:45:00,59.863927,30.460133,ч.2 ст.126 (Похищение Человека); Уголовный Кодекс; Россия
9376146,Четверть тонны алкоголя изъята из незаконного оборота в Парголово,2017-02-01 12:39:00,60.1093381,30.2657796,ч.2 ст.14.1 (Осуществление Предпринимательской Деятельности Без Государственной Регистрации Или Без Специального Разрешения...); Кодекс Об Административных Правонарушениях; Россия
9370260,В Тихвине по «горячим» следам задержали подозреваемого в краже двух планшетов,2017-01-31 16:22:00,60.07623830000001,30.121383,ч.2 ст.158 (Кража); Уголовный Кодекс; Россия
9367080,"Полицейские задержали гражданина, находящегося в федеральном розыске за убийство",2017-01-31 12:19:00,59.9342802,30.3350986,ч.1 ст.105 (Убийство); Уголовный Кодекс; Россия
9365692,"В Петербурге задержан гражданин, готовивший к сбыту крупную партию наркотиков",2017-01-31 10:30:00,59.8543839,30.1846125,ч.3 ст.30; Уголовный Кодекс; Россия
9365624,В Выборгском районе Петербурга задержан уличный грабитель,2017-01-31 10:23:00,60.06091809999999,30.3259041,ч.2 ст.161 (Грабеж); Уголовный Кодекс; Россия
9365429,В Ленобласти задержан подозреваемый в квартирной краже,2017-01-31 10:04:00,60.07623830000001,30.121383,ч.3 ст.158 (Кража); Уголовный Кодекс; Россия
9360464,В Купчино ликвидирован притон по оказанию услуг интимного характера,2017-01-30 14:49:00,59.832701,30.3933382,ст.6.11 (Занятие Проституцией); Кодекс Об Административных Правонарушениях; Россия
9360127,В Московском районе задержаны подозреваемые в покушении на убийство и разбое,2017-01-30 14:19:00,59.8607635,30.3504807,ч.3 ст.30; Уголовный Кодекс; Россия
9359722,Сотрудники петербургской полиции в Воронеже задержали подозреваемого в разбое и покушении на убийство,2017-01-30 13:32:00,60.07623830000001,30.121383,ч.2 ст.162 (Разбой); Уголовный Кодекс; Россия
9358582,В Тихвине полицейские задержали «ночного» похитителя товаров из супермаркета,2017-01-30 11:37:00,60.12586099999999,30.1359731,ч.3 ст.30; Уголовный Кодекс; Россия
9356546,Оперативники уголовного розыска по «горячим» следам задержали подозреваемых в квартирной краже,2017-01-30 09:11:00,59.84835589999999,30.2784263,ч.3 ст.158 (Кража); Уголовный Кодекс; Россия
9356200,В Петербурге задержан подозреваемый в попытке незаконного сбыта крупной партии наркотиков,2017-01-30 08:30:00,59.93562370000001,30.4949107,ч.3 ст.30; Уголовный Кодекс; Россия
9353777,В Приозерском районе задержан подозреваемый в угоне автомобиля,2017-01-29 11:00:00,60.8759893,30.1621132,ч.1 ст.166 (Неправомерное Завладение Транспортным Средством); Уголовный Кодекс; Россия
9353737,"Задержаны двое подростков, подозреваемых в ограблении девушки",2017-01-29 10:35:00,59.761761,30.5788969,ч.2 ст.161 (Грабеж); Уголовный Кодекс; Россия
9344196,В Невском районе Петербурга задержали автоугонщика,2017-01-27 10:46:00,59.8820843,30.4519938,ч.2 ст.158 (Кража); Уголовный Кодекс; Россия
9342921,В Кировском районе Петербурга оперативно раскрыта кража у посетительницы ресторана,2017-01-27 09:25:00,59.900038,30.273329,ч.2 ст.158 (Кража); Уголовный Кодекс; Россия
9342604,В Петербурге полиция расследует ограбление автовладельца,2017-01-27 08:47:00,59.9790096,30.4254883,ч.2 ст.161 (Грабеж); Уголовный Кодекс; Россия
9342505,"Полиция разыскивает преступника, ранившего ножом мужчину",2017-01-27 08:27:00,60.07623830000001,30.121383,ч.2 ст.111 (Умышленное Причинение Тяжкого Вреда Здоровью); Уголовный Кодекс; Россия
9337364,В Выборгском районе Петербурга закрыт очередной притон по оказанию интим-услуг,2017-01-26 14:38:00,60.05537599999999,30.335493,ст.6.11 (Занятие Проституцией); Кодекс Об Административных Правонарушениях; Россия
9333424,В Петербурге задержан подозреваемый в кражах из иномарок,2017-01-26 10:13:00,60.07623830000001,30.121383,ч.1 ст.158 (Кража); Уголовный Кодекс; Россия
9328956,В Ломоносове задержана женщина с психотропным веществом,2017-01-25 16:38:00,59.90109019999999,29.7747344,ч.1 ст.228 (Незаконное Хранение Наркотических Средств и Психотропных Веществ); Уголовный Кодекс; Россия
9328738,"В Петродворцовом районе Петербурга задержана женщина, подозреваемая в мошенничестве",2017-01-25 16:18:00,59.8540187,30.037478,ч.2 ст.159 (Мошенничество); Уголовный Кодекс; Россия
9324561,Притоны для занятий проституцией закрыты в двух районах Санкт-Петербурга,2017-01-25 11:38:00,59.87254919999999,30.4037159,ст.6.11 (Занятие Проституцией); Кодекс Об Административных Правонарушениях; Россия
9323019,В Кингисеппском районе Ленобласти полицией задержан уличный грабитель,2017-01-25 09:55:00,60.07623830000001,30.121383,ч.2 ст.161 (Грабеж); Уголовный Кодекс; Россия
9322987,"Полицией задержан подросток, совершивший ночью разбой в магазине",2017-01-25 09:52:00,59.867112,30.411391,ч.2 ст.162 (Разбой); Уголовный Кодекс; Россия
9322926,В Ломоносове полицией задержаны трое автоугонщиков,2017-01-25 09:51:00,59.89531049999999,29.7725278,ч.3 ст.158 (Кража); Уголовный Кодекс; Россия
9322541,"В Кингисеппе задержан злоумышленник, совершивший разбойное нападение на женщину",2017-01-25 09:30:00,60.07623830000001,30.121383,ч.2 ст.162 (Разбой); Уголовный Кодекс; Россия
9322308,В Приморском районе Петербурга полиция расследует вымогательство,2017-01-25 09:09:00,60.0227465,30.2512745,ч.2 ст.163 (Вымогательство); Уголовный Кодекс; Россия
